$GNRMC,023840.00,A,1728.12359,N,07822.53808,E,0.146,,080118,,,A*69
$GNVTG,,T,,M,0.146,N,0.270,K,A*3B
$GNGGA,023840.00,1728.12359,N,07822.53808,E,1,03,1.78,558.7,M,-74.0,M,,*6A
$GNGSA,A,3,20,32,24,,,,,,,,,,6.54,1.78,6.30*15
$GNGSA,A,3,,,,,,,,,,,,,6.54,1.78,6.30*10
$GPGSV,3,1,10,13,03,036,19,15,,,29,16,01,283,,18,46,335,*48
$GPGSV,3,2,10,20,26,047,25,21,59,008,,24,31,107,30,26,04,256,11*7C
$GPGSV,3,3,10,32,29,218,27,42,19,099,29*79
$GLGSV,1,1,00*65
$GNGLL,1728.12359,N,07822.53808,E,023840.00,A,A*73
$GNRMC,023841.00,A,1728.12354,N,07822.53809,E,0.137,,080118,,,A*62
$GNVTG,,T,,M,0.137,N,0.254,K,A*3B
$GNGGA,023841.00,1728.12354,N,07822.53809,E,1,03,1.78,558.2,M,-74.0,M,,*62
$GNGSA,A,3,20,32,24,,,,,,,,,,6.54,1.78,6.30*15
$GNGSA,A,3,,,,,,,,,,,,,6.54,1.78,6.30*10
$GPGSV,3,1,10,13,03,036,19,15,,,29,16,01,283,,18,46,335,*48
$GPGSV,3,2,10,20,26,047,25,21,59,008,,24,31,107,30,26,04,256,10*7D
$GPGSV,3,3,10,32,29,218,26,42,19,099,29*78
$GLGSV,1,1,00*65
$GNGLL,1728.12354,N,07822.53809,E,023841.00,A,A*7E
$GNRMC,023842.00,A,1728.12344,N,07822.53816,E,0.064,,080118,,,A*69
$GNVTG,,T,,M,0.064,N,0.118,K,A*37
$GNGGA,023842.00,1728.12344,N,07822.53816,E,1,03,1.78,558.2,M,-74.0,M,,*6E
$GNGSA,A,3,20,32,24,,,,,,,,,,6.54,1.78,6.30*15
$GNGSA,A,3,,,,,,,,,,,,,6.54,1.78,6.30*10
$GPGSV,3,1,10,13,03,036,19,15,,,29,16,01,283,,18,46,335,*48
$GPGSV,3,2,10,20,26,047,25,21,59,008,,24,31,107,30,26,04,256,08*74
$GPGSV,3,3,10,32,29,218,26,42,19,099,30*70
$GLGSV,1,1,00*65
$GNGLL,1728.12344,N,07822.53816,E,023842.00,A,A*72
$GNRMC,023843.00,A,1728.12337,N,07822.53819,E,0.103,,080118,,,A*63
$GNVTG,,T,,M,0.103,N,0.191,K,A*36
$GNGGA,023843.00,1728.12337,N,07822.53819,E,1,03,1.78,558.1,M,-74.0,M,,*67
$GNGSA,A,3,20,32,24,,,,,,,,,,6.54,1.78,6.30*15
$GNGSA,A,3,,,,,,,,,,,,,6.54,1.78,6.30*10
$GPGSV,3,1,10,13,03,036,19,15,,,29,16,01,283,,18,46,335,*48
$GPGSV,3,2,10,20,26,047,25,21,59,008,,24,31,107,30,26,04,256,10*7D
$GPGSV,3,3,10,32,29,218,26,42,19,099,29*78
$GLGSV,1,1,00*65
$GNGLL,1728.12337,N,07822.53819,E,023843.00,A,A*78
$GNRMC,023844.00,A,1728.12336,N,07822.53821,E,0.093,,080118,,,A*66
$GNVTG,,T,,M,0.093,N,0.172,K,A*33
$GNGGA,023844.00,1728.12336,N,07822.53821,E,1,03,1.78,558.1,M,-74.0,M,,*6A
$GNGSA,A,3,20,32,24,,,,,,,,,,6.54,1.78,6.30*15
$GNGSA,A,3,,,,,,,,,,,,,6.54,1.78,6.30*10
$GPGSV,3,1,10,13,03,036,19,15,,,29,16,01,283,,18,46,335,*48
$GPGSV,3,2,10,20,26,047,25,21,59,008,,24,31,107,30,26,04,256,11*7C
$GPGSV,3,3,10,32,29,218,26,42,19,099,29*78
$GLGSV,1,1,00*65
$GNGLL,1728.12336,N,07822.53821,E,023844.00,A,A*75
$GNRMC,023845.00,A,1728.12333,N,07822.53822,E,0.033,,080118,,,A*6B
$GNVTG,,T,,M,0.033,N,0.062,K,A*39
$GNGGA,023845.00,1728.12333,N,07822.53822,E,1,03,1.78,557.9,M,-74.0,M,,*6A
$GNGSA,A,3,20,32,24,,,,,,,,,,6.54,1.78,6.30*15
$GNGSA,A,3,,,,,,,,,,,,,6.54,1.78,6.30*10
$GPGSV,3,1,10,13,03,036,19,15,,,28,16,01,283,,18,46,335,*49
$GPGSV,3,2,10,20,26,047,25,21,59,008,,24,31,107,30,26,04,256,11*7C
$GPGSV,3,3,10,32,29,218,25,42,19,099,29*7B
$GLGSV,1,1,00*65
$GNGLL,1728.12333,N,07822.53822,E,023845.00,A,A*72
$GNRMC,023846.00,A,1728.12339,N,07822.53817,E,0.083,,080118,,,A*6F
$GNVTG,,T,,M,0.083,N,0.154,K,A*36
$GNGGA,023846.00,1728.12339,N,07822.53817,E,1,03,1.78,557.9,M,-74.0,M,,*65
$GNGSA,A,3,20,32,24,,,,,,,,,,6.55,1.78,6.30*14
$GNGSA,A,3,,,,,,,,,,,,,6.55,1.78,6.30*11
$GPGSV,3,1,10,13,03,036,19,15,,,28,16,01,283,,18,46,335,*49
$GPGSV,3,2,10,20,26,047,25,21,59,008,,24,31,107,29,26,04,256,11*74
$GPGSV,3,3,10,32,29,218,25,42,19,099,29*7B
$GLGSV,1,1,00*65
$GNGLL,1728.12339,N,07822.53817,E,023846.00,A,A*7D
$GNRMC,023847.00,A,1728.12341,N,07822.53820,E,0.035,,080118,,,A*68
$GNVTG,,T,,M,0.035,N,0.065,K,A*38
$GNGGA,023847.00,1728.12341,N,07822.53820,E,1,03,1.78,558.0,M,-74.0,M,,*69
$GNGSA,A,3,20,32,24,,,,,,,,,,6.55,1.78,6.30*14
$GNGSA,A,3,,,,,,,,,,,,,6.55,1.78,6.30*11
$GPGSV,3,1,10,13,03,036,19,15,,,28,16,01,283,,18,46,335,*49
$GPGSV,3,2,10,20,26,047,24,21,59,008,,24,31,107,30,26,04,256,11*7D
$GPGSV,3,3,10,32,29,218,25,42,19,099,30*73
$GLGSV,1,1,00*65
$GNGLL,1728.12341,N,07822.53820,E,023847.00,A,A*77
$GNRMC,023848.00,A,1728.12342,N,07822.53825,E,0.076,,080118,,,A*66
$GNVTG,,T,,M,0.076,N,0.141,K,A*38
$GNGGA,023848.00,1728.12342,N,07822.53825,E,1,03,1.78,558.3,M,-74.0,M,,*63
$GNGSA,A,3,20,32,24,,,,,,,,,,6.55,1.78,6.30*14
$GNGSA,A,3,,,,,,,,,,,,,6.55,1.78,6.30*11
$GPGSV,3,1,10,13,03,036,19,15,,,28,16,01,283,,18,46,335,*49
$GPGSV,3,2,10,20,26,047,24,21,59,008,,24,31,107,30,26,04,256,11*7D
$GPGSV,3,3,10,32,29,218,25,42,19,099,29*7B
$GLGSV,1,1,00*65
$GNGLL,1728.12342,N,07822.53825,E,023848.00,A,A*7E
$GNRMC,023849.00,A,1728.12346,N,07822.53828,E,0.136,,080118,,,A*6B
$GNVTG,,T,,M,0.136,N,0.251,K,A*3F
$GNGGA,023849.00,1728.12346,N,07822.53828,E,1,03,1.78,558.8,M,-74.0,M,,*60
$GNGSA,A,3,20,32,24,,,,,,,,,,6.55,1.78,6.30*14
$GNGSA,A,3,,,,,,,,,,,,,6.55,1.78,6.30*11
$GPGSV,3,1,10,13,03,036,19,15,,,28,16,01,283,,18,46,335,*49
$GPGSV,3,2,10,20,26,047,24,21,59,008,,24,31,107,30,26,04,256,*7D
$GPGSV,3,3,10,32,29,218,25,42,19,099,29*7B
$GLGSV,1,1,00*65
$GNGLL,1728.12346,N,07822.53828,E,023849.00,A,A*76
$GNRMC,023850.00,A,1728.12351,N,07822.53829,E,0.041,,080118,,,A*65
$GNVTG,,T,,M,0.041,N,0.076,K,A*39
$GNGGA,023850.00,1728.12351,N,07822.53829,E,1,03,1.78,559.3,M,-74.0,M,,*65
$GNGSA,A,3,20,32,24,,,,,,,,,,6.55,1.78,6.30*14
$GNGSA,A,3,,,,,,,,,,,,,6.55,1.78,6.30*11
$GPGSV,3,1,10,13,03,036,19,15,,,27,16,01,283,,18,46,335,*46
$GPGSV,3,2,10,20,26,047,24,21,59,008,,24,31,107,30,26,04,256,*7D
$GPGSV,3,3,10,32,29,218,25,42,19,099,29*7B
$GLGSV,1,1,00*65
$GNGLL,1728.12351,N,07822.53829,E,023850.00,A,A*79
$GNRMC,023851.00,A,1728.12355,N,07822.53828,E,0.036,,080118,,,A*61
$GNVTG,,T,,M,0.036,N,0.067,K,A*39
$GNGGA,023851.00,1728.12355,N,07822.53828,E,1,03,1.78,559.2,M,-74.0,M,,*60
$GNGSA,A,3,20,32,24,,,,,,,,,,6.55,1.78,6.30*14
$GNGSA,A,3,,,,,,,,,,,,,6.55,1.78,6.30*11
$GPGSV,3,1,10,13,03,036,18,15,,,27,16,01,283,,18,46,335,*47
$GPGSV,3,2,10,20,26,047,23,21,59,008,,24,31,107,29,26,04,256,*72
$GPGSV,3,3,10,32,29,218,25,42,19,099,29*7B
$GLGSV,1,1,00*65
$GNGLL,1728.12355,N,07822.53828,E,023851.00,A,A*7D
$GNRMC,023852.00,A,1728.12360,N,07822.53823,E,0.025,,080118,,,A*6D
$GNVTG,,T,,M,0.025,N,0.047,K,A*39
$GNGGA,023852.00,1728.12360,N,07822.53823,E,1,03,1.78,559.2,M,-74.0,M,,*6E
$GNGSA,A,3,20,32,24,,,,,,,,,,6.55,1.78,6.30*14
$GNGSA,A,3,,,,,,,,,,,,,6.55,1.78,6.30*11
$GPGSV,3,1,10,13,03,036,18,15,,,27,16,01,283,,18,46,335,*47
$GPGSV,3,2,10,20,26,047,23,21,59,008,,24,31,107,29,26,04,256,*72
$GPGSV,3,3,10,32,29,218,25,42,19,099,29*7B
$GLGSV,1,1,00*65
$GNGLL,1728.12360,N,07822.53823,E,023852.00,A,A*73
$GNRMC,023853.00,A,1728.12365,N,07822.53822,E,0.037,,080118,,,A*6B
$GNVTG,,T,,M,0.037,N,0.069,K,A*36
$GNGGA,023853.00,1728.12365,N,07822.53822,E,1,03,1.78,559.2,M,-74.0,M,,*6B
$GNGSA,A,3,20,32,24,,,,,,,,,,6.55,1.78,6.30*14
$GNGSA,A,3,,,,,,,,,,,,,6.55,1.78,6.30*11
$GPGSV,3,1,10,13,03,036,18,15,,,27,16,01,283,,18,46,335,*47
$GPGSV,3,2,10,20,26,047,22,21,59,008,,24,31,107,29,26,04,256,*73
$GPGSV,3,3,10,32,29,218,24,42,19,099,29*7A
$GLGSV,1,1,00*65
$GNGLL,1728.12365,N,07822.53822,E,023853.00,A,A*76
$GNRMC,023854.00,A,1728.12408,N,07822.53810,E,0.852,,080118,,,A*6A
$GNVTG,,T,,M,0.852,N,1.578,K,A*39
$GNGGA,023854.00,1728.12408,N,07822.53810,E,1,03,1.78,560.1,M,-74.0,M,,*68
$GNGSA,A,3,20,32,24,,,,,,,,,,6.55,1.78,6.30*14
$GNGSA,A,3,,,,,,,,,,,,,6.55,1.78,6.30*11
$GPGSV,3,1,10,13,03,036,18,15,,,27,16,01,283,,18,46,335,*47
$GPGSV,3,2,10,20,26,047,22,21,59,008,,24,31,107,30,26,04,256,*7B
$GPGSV,3,3,10,32,29,218,24,42,19,099,30*72
$GLGSV,1,1,00*65
$GNGLL,1728.12408,N,07822.53810,E,023854.00,A,A*7C
$GNRMC,023855.00,A,1728.12465,N,07822.53794,E,1.359,,080118,,,A*62
$GNVTG,,T,,M,1.359,N,2.518,K,A*3D
$GNGGA,023855.00,1728.12465,N,07822.53794,E,1,03,1.78,560.9,M,-74.0,M,,*69
$GNGSA,A,3,20,32,24,,,,,,,,,,6.55,1.78,6.30*14
$GNGSA,A,3,,,,,,,,,,,,,6.55,1.78,6.30*11
$GPGSV,3,1,10,13,03,036,19,15,,,26,16,01,283,,18,46,335,*47
$GPGSV,3,2,10,20,26,047,21,21,59,008,,24,31,107,30,26,04,256,*78
$GPGSV,3,3,10,32,29,218,24,42,19,099,30*72
$GLGSV,1,1,00*65
$GNGLL,1728.12465,N,07822.53794,E,023855.00,A,A*75
$GNRMC,023856.00,A,1728.12500,N,07822.53784,E,1.068,,080118,,,A*63
$GNVTG,,T,,M,1.068,N,1.978,K,A*35
$GNGGA,023856.00,1728.12500,N,07822.53784,E,1,03,1.78,561.4,M,-74.0,M,,*65
$GNGSA,A,3,20,32,24,,,,,,,,,,6.55,1.78,6.30*14
$GNGSA,A,3,,,,,,,,,,,,,6.55,1.78,6.30*11
$GPGSV,3,1,10,13,03,036,18,15,,,26,16,01,283,,18,46,335,*46
$GPGSV,3,2,10,20,26,047,21,21,59,008,,24,31,107,29,26,04,256,*70
$GPGSV,3,3,10,32,29,218,24,42,19,099,30*72
$GLGSV,1,1,00*65
$GNGLL,1728.12500,N,07822.53784,E,023856.00,A,A*75
$GNRMC,023857.00,A,1728.12501,N,07822.53790,E,0.565,,080118,,,A*6F
$GNVTG,,T,,M,0.565,N,1.046,K,A*38
$GNGGA,023857.00,1728.12501,N,07822.53790,E,1,03,1.78,561.4,M,-74.0,M,,*60
$GNGSA,A,3,20,32,24,,,,,,,,,,6.55,1.78,6.31*15
$GNGSA,A,3,,,,,,,,,,,,,6.55,1.78,6.31*10
$GPGSV,3,1,10,13,03,036,18,15,,,26,16,01,283,,18,46,335,*46
$GPGSV,3,2,10,20,26,047,21,21,59,008,,24,31,107,30,26,04,256,*78
$GPGSV,3,3,10,32,29,218,24,42,19,099,29*7A
$GLGSV,1,1,00*65
$GNGLL,1728.12501,N,07822.53790,E,023857.00,A,A*70
$GNRMC,023858.00,A,1728.12517,N,07822.53783,E,0.488,,080118,,,A*67
$GNVTG,,T,,M,0.488,N,0.904,K,A*34
$GNGGA,023858.00,1728.12517,N,07822.53783,E,1,03,1.78,561.7,M,-74.0,M,,*69
$GNGSA,A,3,20,32,24,,,,,,,,,,6.55,1.78,6.31*15
$GNGSA,A,3,,,,,,,,,,,,,6.55,1.78,6.31*10
$GPGSV,3,1,10,13,03,036,19,15,,,25,16,01,283,,18,46,335,*44
$GPGSV,3,2,10,20,26,047,21,21,59,008,,24,31,107,29,26,04,256,*70
$GPGSV,3,3,10,32,29,218,25,42,19,099,29*7B
$GLGSV,1,1,00*65
$GNGLL,1728.12517,N,07822.53783,E,023858.00,A,A*7A
$GNRMC,023859.00,A,1728.12571,N,07822.53760,E,1.032,,080118,,,A*6F
$GNVTG,,T,,M,1.032,N,1.911,K,A*35
$GNGGA,023859.00,1728.12571,N,07822.53760,E,1,03,1.78,561.7,M,-74.0,M,,*65
$GNGSA,A,3,20,32,24,,,,,,,,,,6.55,1.78,6.31*15
$GNGSA,A,3,,,,,,,,,,,,,6.55,1.78,6.31*10
$GPGSV,3,1,10,13,03,036,18,15,,,25,16,01,283,,18,46,335,*45
$GPGSV,3,2,10,20,26,047,21,21,59,008,,24,31,107,30,26,04,256,*78
$GPGSV,3,3,10,32,29,218,25,42,19,099,29*7B
$GLGSV,1,1,00*65
$GNGLL,1728.12571,N,07822.53760,E,023859.00,A,A*76
$GNRMC,023900.00,A,1728.12622,N,07822.53742,E,1.367,,080118,,,A*64
$GNVTG,,T,,M,1.367,N,2.532,K,A*38
$GNGGA,023900.00,1728.12622,N,07822.53742,E,1,03,1.78,561.5,M,-74.0,M,,*6F
$GNGSA,A,3,20,32,24,,,,,,,,,,6.55,1.78,6.31*15
$GNGSA,A,3,,,,,,,,,,,,,6.55,1.78,6.31*10
$GPGSV,3,1,10,13,03,036,19,15,,,25,16,01,283,,18,46,335,*44
$GPGSV,3,2,10,20,26,047,20,21,59,008,,24,31,107,30,26,04,256,*79
$GPGSV,3,3,10,32,29,218,24,42,19,099,30*72
$GLGSV,1,1,00*65
$GNGLL,1728.12622,N,07822.53742,E,023900.00,A,A*7E
$GNRMC,023901.00,A,1728.12586,N,07822.53761,E,0.180,,080118,,,A*63
$GNVTG,,T,,M,0.180,N,0.334,K,A*30
$GNGGA,023901.00,1728.12586,N,07822.53761,E,1,03,1.78,561.0,M,-74.0,M,,*67
$GNGSA,A,3,20,32,24,,,,,,,,,,6.55,1.78,6.31*15
$GNGSA,A,3,,,,,,,,,,,,,6.55,1.78,6.31*10
$GPGSV,3,1,10,13,03,036,19,15,,,25,16,01,282,,18,46,335,*45
$GPGSV,3,2,10,20,26,047,19,21,59,008,,24,31,107,30,26,04,256,*73
$GPGSV,3,3,10,32,29,218,25,42,19,099,29*7B
$GLGSV,1,1,00*65
$GNGLL,1728.12586,N,07822.53761,E,023901.00,A,A*73
$GNRMC,023902.00,V,,,,,,,080118,,,N*69
$GNVTG,,,,,,,,,N*2E
$GNGGA,023902.00,,,,,0,02,11.37,,,,,,*74
$GNGSA,A,1,32,24,,,,,,,,,,,11.42,11.37,1.00*1A
$GNGSA,A,1,,,,,,,,,,,,,11.42,11.37,1.00*1D
$GPGSV,3,1,10,13,03,036,19,15,,,25,16,01,282,,18,46,335,*45
$GPGSV,3,2,10,20,26,047,18,21,59,008,,24,31,107,30,26,04,256,*72
$GPGSV,3,3,10,32,29,218,25,42,19,099,29*7B
$GLGSV,1,1,00*65
$GNGLL,,,,,023902.00,V,N*5E
$GNRMC,023903.00,V,,,,,,,080118,,,N*68
$GNVTG,,,,,,,,,N*2E
$GNGGA,023903.00,,,,,0,02,11.38,,,,,,*7A
$GNGSA,A,1,32,24,,,,,,,,,,,11.42,11.38,1.00*15
$GNGSA,A,1,,,,,,,,,,,,,11.42,11.38,1.00*12
$GPGSV,3,1,10,13,03,036,18,15,,,25,16,01,282,,18,46,335,*44
$GPGSV,3,2,10,20,26,047,17,21,59,008,,24,31,107,30,26,04,256,*7D
$GPGSV,3,3,10,32,29,218,26,42,19,099,30*70
$GLGSV,1,1,00*65
$GNGLL,,,,,023903.00,V,N*5F
$GNRMC,023904.00,V,,,,,,,080118,,,N*6F
$GNVTG,,,,,,,,,N*2E
$GNGGA,023904.00,,,,,0,02,11.39,,,,,,*7C
$GNGSA,A,1,32,24,,,,,,,,,,,11.43,11.39,1.00*15
$GNGSA,A,1,,,,,,,,,,,,,11.43,11.39,1.00*12
$GPGSV,3,1,10,13,03,036,19,15,,,24,16,01,282,,18,46,335,*44
$GPGSV,3,2,10,20,26,047,17,21,59,008,,24,31,107,30,26,04,256,*7D
$GPGSV,3,3,10,32,29,218,26,42,19,099,30*70
$GLGSV,1,1,00*65
$GNGLL,,,,,023904.00,V,N*58
$GNRMC,023905.00,V,,,,,,,080118,,,N*6E
$GNVTG,,,,,,,,,N*2E
$GNGGA,023905.00,,,,,0,02,11.39,,,,,,*7D
$GNGSA,A,1,32,24,,,,,,,,,,,11.44,11.39,1.00*12
$GNGSA,A,1,,,,,,,,,,,,,11.44,11.39,1.00*15
$GPGSV,3,1,10,13,03,036,19,15,,,25,16,01,282,,18,46,335,*45
$GPGSV,3,2,10,20,25,047,17,21,59,008,,24,31,107,30,26,04,256,13*7C
$GPGSV,3,3,10,32,29,218,26,42,19,099,29*78
$GLGSV,1,1,00*65
$GNGLL,,,,,023905.00,V,N*59
$GNRMC,023906.00,V,,,,,,,080118,,,N*6D
$GNVTG,,,,,,,,,N*2E
$GNGGA,023906.00,,,,,0,02,11.40,,,,,,*70
$GNGSA,A,1,32,24,,,,,,,,,,,11.44,11.40,1.00*1C
$GNGSA,A,1,,,,,,,,,,,,,11.44,11.40,1.00*1B
$GPGSV,3,1,10,13,03,036,20,15,,,24,16,01,282,,18,46,335,*4E
$GPGSV,3,2,10,20,25,047,16,21,59,009,,24,31,107,30,26,04,256,10*7F
$GPGSV,3,3,10,32,29,218,26,42,19,099,30*70
$GLGSV,1,1,01,,,,23*65
$GNGLL,,,,,023906.00,V,N*5A
$GNRMC,023907.00,V,,,,,,,080118,,,N*6C
$GNVTG,,,,,,,,,N*2E
$GNGGA,023907.00,,,,,0,02,11.41,,,,,,*70
$GNGSA,A,1,32,24,,,,,,,,,,,11.45,11.41,1.00*1C
$GNGSA,A,1,,,,,,,,,,,,,11.45,11.41,1.00*1B
$GPGSV,3,1,10,13,03,036,20,15,,,24,16,01,282,,18,46,335,*4E
$GPGSV,3,2,10,20,25,047,17,21,59,009,,24,31,107,30,26,04,256,09*76
$GPGSV,3,3,10,32,29,218,25,42,19,099,30*73
$GLGSV,1,1,01,,,,23*65
$GNGLL,,,,,023907.00,V,N*5B
$GNRMC,023908.00,V,,,,,,,080118,,,N*63
$GNVTG,,,,,,,,,N*2E
$GNGGA,023908.00,,,,,0,02,11.41,,,,,,*7F
$GNGSA,A,1,32,24,,,,,,,,,,,11.46,11.41,1.00*1F
$GNGSA,A,1,,,,,,,,,,,,,11.46,11.41,1.00*18
$GPGSV,3,1,10,13,03,036,19,15,,,23,16,01,282,,18,46,335,*43
$GPGSV,3,2,10,20,25,047,18,21,59,009,,24,31,107,30,26,04,256,08*78
$GPGSV,3,3,10,32,29,218,25,42,19,099,29*7B
$GLGSV,1,1,01,,,,24*62
$GNGLL,,,,,023908.00,V,N*54
$GNRMC,023909.00,V,,,,,,,080118,,,N*62
$GNVTG,,,,,,,,,N*2E
$GNGGA,023909.00,,,,,0,02,11.42,,,,,,*7D
$GNGSA,A,1,32,24,,,,,,,,,,,11.46,11.42,1.00*1C
$GNGSA,A,1,,,,,,,,,,,,,11.46,11.42,1.00*1B
$GPGSV,3,1,10,13,03,036,19,15,,,23,16,01,282,,18,46,335,*43
$GPGSV,3,2,10,20,25,047,19,21,59,009,,24,31,106,30,26,04,256,08*78
$GPGSV,3,3,10,32,29,218,25,42,19,099,29*7B
$GLGSV,1,1,01,,,,25*63
$GNGLL,,,,,023909.00,V,N*55
$GNRMC,023910.00,V,,,,,,,080118,,,N*6A
$GNVTG,,,,,,,,,N*2E
$GNGGA,023910.00,,,,,0,02,11.43,,,,,,*74
$GNGSA,A,1,32,24,,,,,,,,,,,11.47,11.43,1.00*1C
$GNGSA,A,1,,,,,,,,,,,,,11.47,11.43,1.00*1B
$GPGSV,3,1,10,13,03,036,19,15,,,23,16,01,282,,18,46,335,*43
$GPGSV,3,2,10,20,25,047,18,21,59,009,,24,31,106,29,26,04,256,09*70
$GPGSV,3,3,10,32,29,218,25,42,19,099,30*73
$GLGSV,1,1,01,,,,25*63
$GNGLL,,,,,023910.00,V,N*5D
$GNRMC,023911.00,A,1728.12538,N,07822.53747,E,0.309,,080118,,,A*60
$GNVTG,,T,,M,0.309,N,0.572,K,A*37
$GNGGA,023911.00,1728.12538,N,07822.53747,E,1,03,1.79,540.1,M,-74.0,M,,*64
$GNGSA,A,3,20,32,24,,,,,,,,,,6.56,1.79,6.31*17
$GNGSA,A,3,,,,,,,,,,,,,6.56,1.79,6.31*12
$GPGSV,3,1,10,13,03,036,20,15,,,23,16,01,282,,18,46,335,*49
$GPGSV,3,2,10,20,25,047,18,21,59,009,,24,31,106,29,26,04,256,09*70
$GPGSV,3,3,10,32,29,218,25,42,19,099,30*73
$GLGSV,1,1,01,,,,25*63
$GNGLL,1728.12538,N,07822.53747,E,023911.00,A,A*73
$GNRMC,023912.00,A,1728.12521,N,07822.53775,E,0.222,,080118,,,A*62
$GNVTG,,T,,M,0.222,N,0.411,K,A*3B
$GNGGA,023912.00,1728.12521,N,07822.53775,E,1,03,1.79,540.7,M,-74.0,M,,*68
$GNGSA,A,3,20,32,24,,,,,,,,,,6.56,1.79,6.31*17
$GNGSA,A,3,,,,,,,,,,,,,6.56,1.79,6.31*12
$GPGSV,3,1,10,13,03,036,20,15,,,23,16,01,282,,18,46,335,*49
$GPGSV,3,2,10,20,25,047,18,21,59,009,,24,31,106,29,26,04,256,09*70
$GPGSV,3,3,10,32,29,218,26,42,19,099,30*70
$GLGSV,1,1,01,,,,25*63
$GNGLL,1728.12521,N,07822.53775,E,023912.00,A,A*79
$GNRMC,023913.00,A,1728.12561,N,07822.53776,E,0.338,,080118,,,A*6E
$GNVTG,,T,,M,0.338,N,0.627,K,A*36
$GNGGA,023913.00,1728.12561,N,07822.53776,E,1,03,1.79,540.9,M,-74.0,M,,*60
$GNGSA,A,3,20,32,24,,,,,,,,,,6.56,1.79,6.31*17
$GNGSA,A,3,,,,,,,,,,,,,6.56,1.79,6.31*12
$GPGSV,3,1,10,13,03,036,21,15,,,24,16,01,282,,18,46,335,*4F
$GPGSV,3,2,10,20,25,047,19,21,59,009,,24,31,106,29,26,04,256,*78
$GPGSV,3,3,10,32,29,218,26,42,19,099,29*78
$GLGSV,1,1,01,,,,25*63
$GNGLL,1728.12561,N,07822.53776,E,023913.00,A,A*7F
$GNRMC,023914.00,A,1728.12569,N,07822.53790,E,0.084,,080118,,,A*6D
$GNVTG,,T,,M,0.084,N,0.156,K,A*33
$GNGGA,023914.00,1728.12569,N,07822.53790,E,1,03,1.79,541.8,M,-74.0,M,,*67
$GNGSA,A,3,20,32,24,,,,,,,,,,6.56,1.79,6.31*17
$GNGSA,A,3,,,,,,,,,,,,,6.56,1.79,6.31*12
$GPGSV,3,1,10,13,03,036,21,15,,,24,16,01,282,,18,46,335,*4F
$GPGSV,3,2,10,20,25,047,20,21,59,009,,24,31,106,29,26,04,256,*72
$GPGSV,3,3,10,32,29,218,25,42,19,099,29*7B
$GLGSV,1,1,01,,,,25*63
$GNGLL,1728.12569,N,07822.53790,E,023914.00,A,A*78
$GNRMC,023915.00,A,1728.12555,N,07822.53812,E,0.342,,080118,,,A*6F
$GNVTG,,T,,M,0.342,N,0.633,K,A*3E
$GNGGA,023915.00,1728.12555,N,07822.53812,E,1,03,1.79,542.8,M,-74.0,M,,*6F
$GNGSA,A,3,20,32,24,,,,,,,,,,6.56,1.79,6.31*17
$GNGSA,A,3,,,,,,,,,,,,,6.56,1.79,6.31*12
$GPGSV,3,1,10,13,03,036,21,15,,,24,16,01,282,,18,46,335,*4F
$GPGSV,3,2,10,20,25,047,20,21,59,009,,24,31,106,29,26,04,256,06*74
$GPGSV,3,3,10,32,29,218,25,42,19,099,30*73
$GLGSV,1,1,01,,,,25*63
$GNGLL,1728.12555,N,07822.53812,E,023915.00,A,A*73
$GNRMC,023916.00,A,1728.12603,N,07822.53803,E,0.231,,080118,,,A*69
$GNVTG,,T,,M,0.231,N,0.427,K,A*3C
$GNGGA,023916.00,1728.12603,N,07822.53803,E,1,03,1.79,543.3,M,-74.0,M,,*66
$GNGSA,A,3,20,32,24,,,,,,,,,,6.56,1.79,6.32*14
$GNGSA,A,3,,,,,,,,,,,,,6.56,1.79,6.32*11
$GPGSV,3,1,10,13,03,036,21,15,,,25,16,01,282,,18,46,335,*4E
$GPGSV,3,2,10,20,25,047,20,21,59,009,,24,31,106,28,26,04,256,08*7B
$GPGSV,3,3,10,32,29,218,25,42,19,099,30*73
$GLGSV,1,1,01,,,,25*63
$GNGLL,1728.12603,N,07822.53803,E,023916.00,A,A*70
$GNRMC,023917.00,A,1728.12742,N,07822.53757,E,1.807,,080118,,,A*6C
$GNVTG,,T,,M,1.807,N,3.346,K,A*31
$GNGGA,023917.00,1728.12742,N,07822.53757,E,1,03,1.79,543.9,M,-74.0,M,,*67
$GNGSA,A,3,20,32,24,,,,,,,,,,6.56,1.79,6.32*14
$GNGSA,A,3,,,,,,,,,,,,,6.56,1.79,6.32*11
$GPGSV,3,1,10,13,03,036,22,15,,,25,16,01,282,,18,46,335,*4D
$GPGSV,3,2,10,20,25,047,21,21,59,009,,24,31,106,29,26,04,256,10*72
$GPGSV,3,3,10,32,29,218,25,42,19,099,30*73
$GLGSV,1,1,01,,,,25*63
$GNGLL,1728.12742,N,07822.53757,E,023917.00,A,A*7B
$GNRMC,023918.00,A,1728.12776,N,07822.53761,E,1.356,,080118,,,A*6E
$GNVTG,,T,,M,1.356,N,2.512,K,A*38
$GNGGA,023918.00,1728.12776,N,07822.53761,E,1,03,1.79,544.3,M,-74.0,M,,*67
$GNGSA,A,3,20,32,24,,,,,,,,,,6.56,1.79,6.32*14
$GNGSA,A,3,,,,,,,,,,,,,6.56,1.79,6.32*11
$GPGSV,3,1,10,13,03,036,21,15,,,25,16,01,282,,18,46,335,*4E
$GPGSV,3,2,10,20,25,047,21,21,59,009,,24,31,106,28,26,04,256,12*71
$GPGSV,3,3,10,32,29,218,25,42,19,099,29*7B
$GLGSV,1,1,01,,,,25*63
$GNGLL,1728.12776,N,07822.53761,E,023918.00,A,A*76
$GNRMC,023919.00,A,1728.12765,N,07822.53782,E,0.566,,080118,,,A*64
$GNVTG,,T,,M,0.566,N,1.047,K,A*3A
$GNGGA,023919.00,1728.12765,N,07822.53782,E,1,03,1.79,544.3,M,-74.0,M,,*69
$GNGSA,A,3,20,32,24,,,,,,,,,,6.57,1.79,6.32*15
$GNGSA,A,3,,,,,,,,,,,,,6.57,1.79,6.32*10
$GPGSV,3,1,10,13,03,036,21,15,,,25,16,01,282,,18,46,335,*4E
$GPGSV,3,2,10,20,25,047,22,21,59,009,,24,31,106,28,26,04,256,09*78
$GPGSV,3,3,10,32,29,218,25,42,19,099,29*7B
$GLGSV,1,1,01,,,,25*63
$GNGLL,1728.12765,N,07822.53782,E,023919.00,A,A*78
$GNRMC,023920.00,A,1728.12791,N,07822.53788,E,0.761,,080118,,,A*6A
$GNVTG,,T,,M,0.761,N,1.409,K,A*31
$GNGGA,023920.00,1728.12791,N,07822.53788,E,1,03,1.79,544.5,M,-74.0,M,,*64
$GNGSA,A,3,20,32,24,,,,,,,,,,6.57,1.79,6.32*15
$GNGSA,A,3,,,,,,,,,,,,,6.57,1.79,6.32*10
$GPGSV,3,1,10,13,03,036,21,15,,,25,16,01,282,,18,46,335,*4E
$GPGSV,3,2,10,20,25,047,23,21,59,009,,24,31,106,28,26,04,256,*70
$GPGSV,3,3,10,32,29,218,25,42,19,099,29*7B
$GLGSV,1,1,01,,,,25*63
$GNGLL,1728.12791,N,07822.53788,E,023920.00,A,A*73
$GNRMC,023921.00,A,1728.12795,N,07822.53802,E,0.297,,080118,,,A*6E
$GNVTG,,T,,M,0.297,N,0.550,K,A*31
$GNGGA,023921.00,1728.12795,N,07822.53802,E,1,03,1.79,544.7,M,-74.0,M,,*6E
$GNGSA,A,3,20,32,24,,,,,,,,,,6.57,1.79,6.32*15
$GNGSA,A,3,,,,,,,,,,,,,6.57,1.79,6.32*10
$GPGSV,3,1,10,13,03,036,21,15,,,26,16,01,282,,18,46,335,*4D
$GPGSV,3,2,10,20,25,047,25,21,59,009,,24,31,106,28,26,04,256,*76
$GPGSV,3,3,10,32,29,218,25,42,19,099,29*7B
$GLGSV,1,1,00*65
$GNGLL,1728.12795,N,07822.53802,E,023921.00,A,A*7B
$GNRMC,023922.00,A,1728.12796,N,07822.53814,E,0.146,,080118,,,A*66
$GNVTG,,T,,M,0.146,N,0.270,K,A*3B
$GNGGA,023922.00,1728.12796,N,07822.53814,E,1,03,1.79,545.0,M,-74.0,M,,*6F
$GNGSA,A,3,20,32,24,,,,,,,,,,6.57,1.79,6.32*15
$GNGSA,A,3,,,,,,,,,,,,,6.57,1.79,6.32*10
$GPGSV,3,1,10,13,03,036,21,15,,,26,16,01,282,,18,46,335,*4D
$GPGSV,3,2,10,20,25,047,25,21,59,009,,24,31,106,28,26,04,256,*76
$GPGSV,3,3,10,32,29,218,25,42,19,099,29*7B
$GLGSV,1,1,00*65
$GNGLL,1728.12796,N,07822.53814,E,023922.00,A,A*7C
$GNRMC,023923.00,A,1728.12798,N,07822.53826,E,0.396,,080118,,,A*67
$GNVTG,,T,,M,0.396,N,0.733,K,A*36
$GNGGA,023923.00,1728.12798,N,07822.53826,E,1,03,1.79,545.3,M,-74.0,M,,*62
$GNGSA,A,3,20,32,24,,,,,,,,,,6.57,1.79,6.32*15
$GNGSA,A,3,,,,,,,,,,,,,6.57,1.79,6.32*10
$GPGSV,3,1,10,13,03,036,21,15,,,26,16,01,282,,18,46,335,*4D
$GPGSV,3,2,10,20,25,047,25,21,59,009,,24,31,106,28,26,04,256,*76
$GPGSV,3,3,10,32,29,218,25,42,19,099,30*73
$GLGSV,1,1,00*65
$GNGLL,1728.12798,N,07822.53826,E,023923.00,A,A*72
$GNRMC,023924.00,A,1728.12778,N,07822.53849,E,0.128,,080118,,,A*60
$GNVTG,,T,,M,0.128,N,0.236,K,A*31
$GNGGA,023924.00,1728.12778,N,07822.53849,E,1,03,1.79,545.5,M,-74.0,M,,*64
$GNGSA,A,3,20,32,24,,,,,,,,,,6.57,1.79,6.32*15
$GNGSA,A,3,,,,,,,,,,,,,6.57,1.79,6.32*10
$GPGSV,3,1,10,13,03,036,22,15,,,26,16,01,282,,18,46,335,*4E
$GPGSV,3,2,10,20,25,047,25,21,59,009,,24,31,106,28,26,04,256,*76
$GPGSV,3,3,10,32,29,218,26,42,19,099,29*78
$GLGSV,1,1,00*65
$GNGLL,1728.12778,N,07822.53849,E,023924.00,A,A*72
$GNRMC,023925.00,A,1728.12767,N,07822.53863,E,0.058,,080118,,,A*61
$GNVTG,,T,,M,0.058,N,0.108,K,A*39
$GNGGA,023925.00,1728.12767,N,07822.53863,E,1,03,1.79,545.4,M,-74.0,M,,*62
$GNGSA,A,3,20,32,24,,,,,,,,,,6.57,1.79,6.32*15
$GNGSA,A,3,,,,,,,,,,,,,6.57,1.79,6.32*10
$GPGSV,3,1,10,13,03,036,22,15,,,27,16,01,282,,18,46,335,*4F
$GPGSV,3,2,10,20,25,047,26,21,59,009,,24,31,106,28,26,04,256,*75
$GPGSV,3,3,10,32,29,218,26,42,19,099,29*78
$GLGSV,1,1,00*65
$GNGLL,1728.12767,N,07822.53863,E,023925.00,A,A*75
$GNRMC,023926.00,A,1728.12751,N,07822.53886,E,0.071,,080118,,,A*67
$GNVTG,,T,,M,0.071,N,0.131,K,A*38
$GNGGA,023926.00,1728.12751,N,07822.53886,E,1,03,1.79,545.5,M,-74.0,M,,*6E
$GNGSA,A,3,20,32,24,,,,,,,,,,6.57,1.79,6.32*15
$GNGSA,A,3,,,,,,,,,,,,,6.57,1.79,6.32*10
$GPGSV,3,1,10,13,03,036,22,15,,,27,16,01,282,,18,46,335,*4F
$GPGSV,3,2,10,20,25,047,26,21,59,009,,24,31,106,28,26,04,256,*75
$GPGSV,3,3,10,32,29,218,26,42,19,099,29*78
$GLGSV,1,1,00*65
$GNGLL,1728.12751,N,07822.53886,E,023926.00,A,A*78
$GNRMC,023927.00,A,1728.12736,N,07822.53903,E,0.016,,080118,,,A*6A
$GNVTG,,T,,M,0.016,N,0.030,K,A*39
$GNGGA,023927.00,1728.12736,N,07822.53903,E,1,03,1.79,545.8,M,-74.0,M,,*6F
$GNGSA,A,3,20,32,24,,,,,,,,,,6.57,1.79,6.32*15
$GNGSA,A,3,,,,,,,,,,,,,6.57,1.79,6.32*10
$GPGSV,3,1,10,13,02,036,22,15,,,27,16,01,282,,18,46,335,*4E
$GPGSV,3,2,10,20,25,047,26,21,59,009,,24,31,106,28,26,04,256,*75
$GPGSV,3,3,10,32,29,218,26,42,19,099,29*78
$GLGSV,1,1,00*65
$GNGLL,1728.12736,N,07822.53903,E,023927.00,A,A*74
$GNRMC,023928.00,A,1728.12737,N,07822.53917,E,0.055,,080118,,,A*66
$GNVTG,,T,,M,0.055,N,0.102,K,A*3E
$GNGGA,023928.00,1728.12737,N,07822.53917,E,1,03,1.79,546.1,M,-74.0,M,,*6E
$GNGSA,A,3,20,32,24,,,,,,,,,,6.57,1.79,6.32*15
$GNGSA,A,3,,,,,,,,,,,,,6.57,1.79,6.32*10
$GPGSV,3,1,10,13,02,036,22,15,,,27,16,00,282,,18,46,335,*4F
$GPGSV,3,2,10,20,25,047,26,21,59,009,,24,31,106,28,26,04,256,*75
$GPGSV,3,3,10,32,29,218,26,42,19,099,29*78
$GLGSV,1,1,00*65
$GNGLL,1728.12737,N,07822.53917,E,023928.00,A,A*7F
$GNRMC,023929.00,A,1728.12740,N,07822.53935,E,0.144,,080118,,,A*66
$GNVTG,,T,,M,0.144,N,0.267,K,A*3F
$GNGGA,023929.00,1728.12740,N,07822.53935,E,1,03,1.79,546.8,M,-74.0,M,,*66
$GNGSA,A,3,20,32,24,,,,,,,,,,6.57,1.79,6.32*15
$GNGSA,A,3,,,,,,,,,,,,,6.57,1.79,6.32*10
$GPGSV,3,1,10,13,02,036,22,15,,,27,16,00,282,,18,46,335,*4F
$GPGSV,3,2,10,20,25,047,26,21,59,009,,24,31,106,28,26,04,256,*75
$GPGSV,3,3,10,32,29,218,26,42,19,099,30*70
$GLGSV,1,1,00*65
$GNGLL,1728.12740,N,07822.53935,E,023929.00,A,A*7E
$GNRMC,023930.00,A,1728.12750,N,07822.53948,E,0.053,,080118,,,A*62
$GNVTG,,T,,M,0.053,N,0.098,K,A*3A
$GNGGA,023930.00,1728.12750,N,07822.53948,E,1,03,1.79,547.5,M,-74.0,M,,*69
$GNGSA,A,3,20,32,24,,,,,,,,,,6.57,1.79,6.32*15
$GNGSA,A,3,,,,,,,,,,,,,6.57,1.79,6.32*10
$GPGSV,3,1,10,13,02,036,23,15,,,27,16,00,282,,18,46,336,*4D
$GPGSV,3,2,10,20,25,047,26,21,59,009,,24,31,106,28,26,04,256,05*70
$GPGSV,3,3,10,32,29,218,27,42,19,099,29*79
$GLGSV,1,1,00*65
$GNGLL,1728.12750,N,07822.53948,E,023930.00,A,A*7D
$GNRMC,023931.00,A,1728.12767,N,07822.53958,E,0.149,,080118,,,A*6C
$GNVTG,,T,,M,0.149,N,0.275,K,A*31
$GNGGA,023931.00,1728.12767,N,07822.53958,E,1,04,1.54,548.5,M,-74.0,M,,*6A
$GNGSA,A,3,15,20,32,24,,,,,,,,,6.10,1.54,5.90*16
$GNGSA,A,3,,,,,,,,,,,,,6.10,1.54,5.90*17
$GPGSV,3,1,10,13,02,036,23,15,31,037,28,16,00,282,,18,46,336,*74
$GPGSV,3,2,10,20,25,047,26,21,59,009,,24,31,106,28,26,04,256,07*72
$GPGSV,3,3,10,32,29,218,27,42,19,099,29*79
$GLGSV,1,1,00*65
$GNGLL,1728.12767,N,07822.53958,E,023931.00,A,A*79
$GNRMC,023932.00,A,1728.12774,N,07822.53972,E,0.025,,080118,,,A*6E
$GNVTG,,T,,M,0.025,N,0.046,K,A*38
$GNGGA,023932.00,1728.12774,N,07822.53972,E,1,04,1.54,549.2,M,-74.0,M,,*65
$GNGSA,A,3,15,20,32,24,,,,,,,,,6.10,1.54,5.90*16
$GNGSA,A,3,,,,,,,,,,,,,6.10,1.54,5.90*17
$GPGSV,3,1,10,13,02,036,23,15,31,037,28,16,00,282,,18,46,336,*74
$GPGSV,3,2,10,20,25,047,26,21,59,009,,24,31,106,27,26,04,256,09*73
$GPGSV,3,3,10,32,29,218,27,42,19,099,30*71
$GLGSV,1,1,00*65
$GNGLL,1728.12774,N,07822.53972,E,023932.00,A,A*70
$GNRMC,023933.00,A,1728.12787,N,07822.53980,E,0.083,,080118,,,A*62
$GNVTG,,T,,M,0.083,N,0.154,K,A*36
$GNGGA,023933.00,1728.12787,N,07822.53980,E,1,04,1.54,550.2,M,-74.0,M,,*6D
$GNGSA,A,3,15,20,32,24,,,,,,,,,6.10,1.54,5.90*16
$GNGSA,A,3,,,,,,,,,,,,,6.10,1.54,5.90*17
$GPGSV,3,1,10,13,02,036,23,15,31,037,28,16,00,282,,18,46,336,*74
$GPGSV,3,2,10,20,25,047,27,21,59,009,,24,31,106,27,26,04,256,09*72
$GPGSV,3,3,10,32,29,218,27,42,19,099,30*71
$GLGSV,1,1,00*65
$GNGLL,1728.12787,N,07822.53980,E,023933.00,A,A*70
$GNRMC,023934.00,A,1728.12784,N,07822.53995,E,0.077,,080118,,,A*69
$GNVTG,,T,,M,0.077,N,0.142,K,A*3A
$GNGGA,023934.00,1728.12784,N,07822.53995,E,1,04,1.54,550.6,M,-74.0,M,,*69
$GNGSA,A,3,15,20,32,24,,,,,,,,,6.10,1.54,5.90*16
$GNGSA,A,3,,,,,,,,,,,,,6.10,1.54,5.90*17
$GPGSV,3,1,10,13,02,036,23,15,31,037,28,16,00,282,,18,46,336,*74
$GPGSV,3,2,10,20,25,047,27,21,59,009,,24,31,106,27,26,04,256,10*7A
$GPGSV,3,3,10,32,29,218,27,42,19,099,30*71
$GLGSV,1,1,00*65
$GNGLL,1728.12784,N,07822.53995,E,023934.00,A,A*70
$GNRMC,023935.00,A,1728.12784,N,07822.54012,E,0.077,,080118,,,A*69
$GNVTG,,T,,M,0.077,N,0.143,K,A*3B
$GNGGA,023935.00,1728.12784,N,07822.54012,E,1,04,1.54,551.3,M,-74.0,M,,*6D
$GNGSA,A,3,15,20,32,24,,,,,,,,,6.10,1.54,5.90*16
$GNGSA,A,3,,,,,,,,,,,,,6.10,1.54,5.90*17
$GPGSV,3,1,10,13,02,036,23,15,31,037,28,16,00,282,,18,46,336,*74
$GPGSV,3,2,10,20,25,047,27,21,59,009,,24,31,106,27,26,04,256,08*73
$GPGSV,3,3,10,32,29,218,27,42,19,099,29*79
$GLGSV,1,1,00*65
$GNGLL,1728.12784,N,07822.54012,E,023935.00,A,A*70
$GNRMC,023936.00,A,1728.12781,N,07822.54025,E,0.119,,080118,,,A*62
$GNVTG,,T,,M,0.119,N,0.221,K,A*35
$GNGGA,023936.00,1728.12781,N,07822.54025,E,1,04,1.54,551.7,M,-74.0,M,,*6B
$GNGSA,A,3,15,20,32,24,,,,,,,,,6.10,1.54,5.90*16
$GNGSA,A,3,,,,,,,,,,,,,6.10,1.54,5.90*17
$GPGSV,3,1,10,13,02,036,23,15,31,037,28,16,00,282,,18,46,336,*74
$GPGSV,3,2,10,20,25,047,26,21,59,009,,24,31,106,27,26,04,256,09*73
$GPGSV,3,3,10,32,29,218,26,42,19,099,29*78
$GLGSV,1,1,00*65
$GNGLL,1728.12781,N,07822.54025,E,023936.00,A,A*72
$GNRMC,023937.00,A,1728.12778,N,07822.54044,E,0.106,,080118,,,A*6C
$GNVTG,,T,,M,0.106,N,0.196,K,A*34
$GNGGA,023937.00,1728.12778,N,07822.54044,E,1,04,1.54,552.5,M,-74.0,M,,*6A
$GNGSA,A,3,15,20,32,24,,,,,,,,,6.10,1.54,5.91*17
$GNGSA,A,3,,,,,,,,,,,,,6.10,1.54,5.91*16
$GPGSV,3,1,10,13,02,036,23,15,31,037,28,16,00,282,,18,46,336,*74
$GPGSV,3,2,10,20,25,047,27,21,59,009,,24,31,106,27,26,04,255,11*78
$GPGSV,3,3,10,32,29,218,26,42,19,099,29*78
$GLGSV,1,1,00*65
$GNGLL,1728.12778,N,07822.54044,E,023937.00,A,A*72
$GNRMC,023938.00,A,1728.12775,N,07822.54062,E,0.121,,080118,,,A*6F
$GNVTG,,T,,M,0.121,N,0.224,K,A*3B
$GNGGA,023938.00,1728.12775,N,07822.54062,E,1,04,1.54,553.0,M,-74.0,M,,*68
$GNGSA,A,3,15,20,32,24,,,,,,,,,6.10,1.54,5.91*17
$GNGSA,A,3,,,,,,,,,,,,,6.10,1.54,5.91*16
$GPGSV,3,1,10,13,02,036,24,15,31,037,27,16,00,282,,18,46,336,*7C
$GPGSV,3,2,10,20,25,047,27,21,59,009,,24,31,106,27,26,04,255,11*78
$GPGSV,3,3,10,32,29,218,26,42,19,099,29*78
$GLGSV,1,1,00*65
$GNGLL,1728.12775,N,07822.54062,E,023938.00,A,A*74
$GNRMC,023939.00,A,1728.12772,N,07822.54079,E,0.216,,080118,,,A*64
$GNVTG,,T,,M,0.216,N,0.400,K,A*3C
$GNGGA,023939.00,1728.12772,N,07822.54079,E,1,04,1.54,553.3,M,-74.0,M,,*67
$GNGSA,A,3,15,20,32,24,,,,,,,,,6.11,1.54,5.91*16
$GNGSA,A,3,,,,,,,,,,,,,6.11,1.54,5.91*17
$GPGSV,3,1,10,13,02,036,23,15,31,037,27,16,00,282,,18,46,336,*7B
$GPGSV,3,2,10,20,25,047,27,21,59,009,,24,31,106,26,26,04,255,11*79
$GPGSV,3,3,10,32,29,218,27,42,19,099,29*79
$GLGSV,1,1,00*65
$GNGLL,1728.12772,N,07822.54079,E,023939.00,A,A*78
$GNRMC,023940.00,A,1728.12763,N,07822.54095,E,0.238,,080118,,,A*64
$GNVTG,,T,,M,0.238,N,0.440,K,A*34
$GNGGA,023940.00,1728.12763,N,07822.54095,E,1,04,1.54,553.9,M,-74.0,M,,*61
$GNGSA,A,3,15,20,32,24,,,,,,,,,6.11,1.54,5.91*16
$GNGSA,A,3,,,,,,,,,,,,,6.11,1.54,5.91*17
$GPGSV,3,1,10,13,02,036,24,15,31,037,27,16,00,282,,18,46,336,*7C
$GPGSV,3,2,10,20,25,047,27,21,59,009,,24,31,106,26,26,04,255,11*79
$GPGSV,3,3,10,32,29,218,26,42,19,099,29*78
$GLGSV,1,1,00*65
$GNGLL,1728.12763,N,07822.54095,E,023940.00,A,A*74
$GNRMC,023941.00,A,1728.12756,N,07822.54112,E,0.088,,080118,,,A*64
$GNVTG,,T,,M,0.088,N,0.164,K,A*3E
$GNGGA,023941.00,1728.12756,N,07822.54112,E,1,04,1.54,554.5,M,-74.0,M,,*63
$GNGSA,A,3,15,20,32,24,,,,,,,,,6.11,1.54,5.91*16
$GNGSA,A,3,,,,,,,,,,,,,6.11,1.54,5.91*17
$GPGSV,3,1,10,13,02,036,24,15,31,037,27,16,00,282,,18,46,336,*7C
$GPGSV,3,2,10,20,25,047,27,21,59,009,,24,31,106,26,26,04,255,11*79
$GPGSV,3,3,10,32,29,218,26,42,19,099,29*78
$GLGSV,1,1,00*65
$GNGLL,1728.12756,N,07822.54112,E,023941.00,A,A*7D
$GNRMC,023942.00,A,1728.12748,N,07822.54129,E,0.035,,080118,,,A*66
$GNVTG,,T,,M,0.035,N,0.065,K,A*38
$GNGGA,023942.00,1728.12748,N,07822.54129,E,1,04,1.54,554.9,M,-74.0,M,,*6B
$GNGSA,A,3,15,20,32,24,,,,,,,,,6.11,1.54,5.91*16
$GNGSA,A,3,,,,,,,,,,,,,6.11,1.54,5.91*17
$GPGSV,3,1,10,13,02,036,24,15,31,037,27,16,00,282,,18,46,336,*7C
$GPGSV,3,2,10,20,25,047,27,21,59,009,,24,31,106,26,26,04,255,10*78
$GPGSV,3,3,10,32,29,218,26,42,19,099,29*78
$GLGSV,1,1,00*65
$GNGLL,1728.12748,N,07822.54129,E,023942.00,A,A*79
$GNRMC,023943.00,A,1728.12742,N,07822.54144,E,0.146,,080118,,,A*63
$GNVTG,,T,,M,0.146,N,0.271,K,A*3A
$GNGGA,023943.00,1728.12742,N,07822.54144,E,1,04,1.54,555.2,M,-74.0,M,,*61
$GNGSA,A,3,15,20,32,24,,,,,,,,,6.11,1.54,5.91*16
$GNGSA,A,3,,,,,,,,,,,,,6.11,1.54,5.91*17
$GPGSV,3,1,10,13,02,036,24,15,31,037,26,16,00,282,,18,46,336,*7D
$GPGSV,3,2,10,20,25,047,27,21,59,009,,24,31,106,26,26,04,255,11*79
$GPGSV,3,3,10,32,29,218,27,42,19,099,29*79
$GLGSV,1,1,00*65
$GNGLL,1728.12742,N,07822.54144,E,023943.00,A,A*79
$GNRMC,023944.00,A,1728.12737,N,07822.54159,E,0.155,,080118,,,A*68
$GNVTG,,T,,M,0.155,N,0.287,K,A*31
$GNGGA,023944.00,1728.12737,N,07822.54159,E,1,04,1.54,555.7,M,-74.0,M,,*6D
$GNGSA,A,3,15,20,32,24,,,,,,,,,6.11,1.54,5.91*16
$GNGSA,A,3,,,,,,,,,,,,,6.11,1.54,5.91*17
$GPGSV,3,1,10,13,02,036,23,15,31,037,26,16,00,282,,18,46,336,*7A
$GPGSV,3,2,10,20,25,047,27,21,59,009,,24,31,106,26,26,04,255,11*79
$GPGSV,3,3,10,32,29,218,27,42,19,099,29*79
$GLGSV,1,1,01,,,,22*64
$GNGLL,1728.12737,N,07822.54159,E,023944.00,A,A*70
$GNRMC,023945.00,A,1728.12733,N,07822.54172,E,0.148,,080118,,,A*68
$GNVTG,,T,,M,0.148,N,0.274,K,A*31
$GNGGA,023945.00,1728.12733,N,07822.54172,E,1,04,1.54,555.8,M,-74.0,M,,*6E
$GNGSA,A,3,15,20,32,24,,,,,,,,,6.11,1.54,5.91*16
$GNGSA,A,3,,,,,,,,,,,,,6.11,1.54,5.91*17
$GPGSV,3,1,10,13,02,036,22,15,31,037,25,16,00,282,,18,46,336,*78
$GPGSV,3,2,10,20,25,047,27,21,59,009,,24,31,106,27,26,04,255,11*78
$GPGSV,3,3,10,32,29,218,27,42,19,099,29*79
$GLGSV,1,1,01,,,,23*65
$GNGLL,1728.12733,N,07822.54172,E,023945.00,A,A*7C
$GNRMC,023946.00,A,1728.12729,N,07822.54179,E,0.035,,080118,,,A*60
$GNVTG,,T,,M,0.035,N,0.065,K,A*38
$GNGGA,023946.00,1728.12729,N,07822.54179,E,1,04,1.54,556.1,M,-74.0,M,,*67
$GNGSA,A,3,15,20,32,24,,,,,,,,,6.11,1.54,5.91*16
$GNGSA,A,3,,,,,,,,,,,,,6.11,1.54,5.91*17
$GPGSV,3,1,10,13,02,036,23,15,31,037,25,16,00,282,,18,46,336,*79
$GPGSV,3,2,10,20,25,047,27,21,59,009,,24,31,106,26,26,04,255,13*7B
$GPGSV,3,3,10,32,29,218,27,42,19,099,29*79
$GLGSV,1,1,01,,,,25*63
$GNGLL,1728.12729,N,07822.54179,E,023946.00,A,A*7F
$GNRMC,023947.00,A,1728.12723,N,07822.54187,E,0.150,,080118,,,A*68
$GNVTG,,T,,M,0.150,N,0.277,K,A*3B
$GNGGA,023947.00,1728.12723,N,07822.54187,E,1,04,1.54,556.0,M,-74.0,M,,*6C
$GNGSA,A,3,15,20,32,24,,,,,,,,,6.11,1.54,5.92*15
$GNGSA,A,3,,,,,,,,,,,,,6.11,1.54,5.92*14
$GPGSV,3,1,10,13,02,036,23,15,31,037,25,16,00,282,,18,46,336,*79
$GPGSV,3,2,10,20,25,047,27,21,59,009,,24,31,106,27,26,04,255,13*7A
$GPGSV,3,3,10,32,29,218,27,42,19,099,29*79
$GLGSV,1,1,01,,,,25*63
$GNGLL,1728.12723,N,07822.54187,E,023947.00,A,A*75
$GNRMC,023948.00,A,1728.12721,N,07822.54194,E,0.074,,080118,,,A*60
$GNVTG,,T,,M,0.074,N,0.137,K,A*3B
$GNGGA,023948.00,1728.12721,N,07822.54194,E,1,04,1.54,556.1,M,-74.0,M,,*62
$GNGSA,A,3,15,20,32,24,,,,,,,,,6.11,1.54,5.92*15
$GNGSA,A,3,,,,,,,,,,,,,6.11,1.54,5.92*14
$GPGSV,3,1,10,13,02,036,23,15,31,037,24,16,00,282,,18,46,336,*78
$GPGSV,3,2,10,20,25,047,26,21,59,009,,24,31,106,26,26,04,255,13*7A
$GPGSV,3,3,10,32,29,218,27,42,19,099,29*79
$GLGSV,1,1,01,,,,25*63
$GNGLL,1728.12721,N,07822.54194,E,023948.00,A,A*7A
$GNRMC,023949.00,A,1728.12716,N,07822.54206,E,0.149,,080118,,,A*62
$GNVTG,,T,,M,0.149,N,0.275,K,A*31
$GNGGA,023949.00,1728.12716,N,07822.54206,E,1,04,1.54,556.5,M,-74.0,M,,*6B
$GNGSA,A,3,15,20,32,24,,,,,,,,,6.11,1.54,5.92*15
$GNGSA,A,3,,,,,,,,,,,,,6.11,1.54,5.92*14
$GPGSV,3,1,10,13,02,036,23,15,31,037,23,16,00,282,,18,46,336,*7F
$GPGSV,3,2,10,20,25,047,26,21,59,009,,24,31,106,26,26,04,255,13*7A
$GPGSV,3,3,10,32,29,218,27,42,19,099,29*79
$GLGSV,1,1,01,,,,25*63
$GNGLL,1728.12716,N,07822.54206,E,023949.00,A,A*77
$GNRMC,023950.00,A,1728.12716,N,07822.54213,E,0.065,,080118,,,A*61
$GNVTG,,T,,M,0.065,N,0.120,K,A*3D
$GNGGA,023950.00,1728.12716,N,07822.54213,E,1,04,1.54,556.7,M,-74.0,M,,*65
$GNGSA,A,3,15,20,32,24,,,,,,,,,6.12,1.54,5.92*16
$GNGSA,A,3,,,,,,,,,,,,,6.12,1.54,5.92*17
$GPGSV,3,1,10,13,02,036,23,15,31,037,23,16,00,282,,18,46,336,*7F
$GPGSV,3,2,10,20,25,047,26,21,59,009,,24,31,106,26,26,04,255,12*7B
$GPGSV,3,3,10,32,29,218,27,42,19,099,29*79
$GLGSV,1,1,01,,,,25*63
$GNGLL,1728.12716,N,07822.54213,E,023950.00,A,A*7B
$GNRMC,023951.00,A,1728.12715,N,07822.54214,E,0.052,,080118,,,A*60
$GNVTG,,T,,M,0.052,N,0.096,K,A*35
$GNGGA,023951.00,1728.12715,N,07822.54214,E,1,04,1.54,556.5,M,-74.0,M,,*62
$GNGSA,A,3,15,20,32,24,,,,,,,,,6.12,1.54,5.92*16
$GNGSA,A,3,,,,,,,,,,,,,6.12,1.54,5.92*17
$GPGSV,3,1,10,13,02,036,23,15,31,037,23,16,00,282,,18,46,336,*7F
$GPGSV,3,2,10,20,25,047,27,21,59,009,,24,31,106,26,26,04,255,12*7A
$GPGSV,3,3,10,32,29,218,27,42,19,099,29*79
$GLGSV,1,1,01,,,,25*63
$GNGLL,1728.12715,N,07822.54214,E,023951.00,A,A*7E
$GNRMC,023952.00,A,1728.12712,N,07822.54220,E,0.060,,080118,,,A*62
$GNVTG,,T,,M,0.060,N,0.110,K,A*3B
$GNGGA,023952.00,1728.12712,N,07822.54220,E,1,04,1.54,556.8,M,-74.0,M,,*6C
$GNGSA,A,3,15,20,32,24,,,,,,,,,6.12,1.54,5.92*16
$GNGSA,A,3,,,,,,,,,,,,,6.12,1.54,5.92*17
$GPGSV,3,1,10,13,02,036,24,15,31,037,22,16,00,282,,18,46,336,*79
$GPGSV,3,2,10,20,25,047,26,21,59,009,,24,31,106,26,26,04,255,13*7A
$GPGSV,3,3,10,32,29,218,27,42,19,099,29*79
$GLGSV,1,1,01,,,,25*63
$GNGLL,1728.12712,N,07822.54220,E,023952.00,A,A*7D
$GNRMC,023953.00,A,1728.12711,N,07822.54224,E,0.108,,080118,,,A*6B
$GNVTG,,T,,M,0.108,N,0.200,K,A*36
$GNGGA,023953.00,1728.12711,N,07822.54224,E,1,04,1.54,557.1,M,-74.0,M,,*62
$GNGSA,A,3,15,20,32,24,,,,,,,,,6.12,1.54,5.92*16
$GNGSA,A,3,,,,,,,,,,,,,6.12,1.54,5.92*17
$GPGSV,3,1,10,13,02,036,24,15,31,037,21,16,00,282,,18,46,336,*7A
$GPGSV,3,2,10,20,25,047,26,21,59,009,,24,31,106,26,26,04,255,13*7A
$GPGSV,3,3,10,32,29,218,27,42,19,099,29*79
$GLGSV,1,1,01,,,,25*63
$GNGLL,1728.12711,N,07822.54224,E,023953.00,A,A*7B
$GNRMC,023954.00,A,1728.12704,N,07822.54229,E,0.084,,080118,,,A*60
$GNVTG,,T,,M,0.084,N,0.156,K,A*33
$GNGGA,023954.00,1728.12704,N,07822.54229,E,1,04,1.54,557.4,M,-74.0,M,,*69
$GNGSA,A,3,15,20,32,24,,,,,,,,,6.12,1.54,5.92*16
$GNGSA,A,3,,,,,,,,,,,,,6.12,1.54,5.92*17
$GPGSV,3,1,10,13,02,036,24,15,31,037,20,16,00,282,,18,46,336,*7B
$GPGSV,3,2,10,20,25,047,26,21,59,009,,24,31,106,25,26,04,255,12*78
$GPGSV,3,3,10,32,29,218,27,42,19,099,29*79
$GLGSV,1,1,01,,,,25*63
$GNGLL,1728.12704,N,07822.54229,E,023954.00,A,A*75
$GNRMC,023955.00,A,1728.12689,N,07822.54245,E,0.169,,080118,,,A*6D
$GNVTG,,T,,M,0.169,N,0.313,K,A*32
$GNGGA,023955.00,1728.12689,N,07822.54245,E,1,04,1.54,557.9,M,-74.0,M,,*6B
$GNGSA,A,3,15,20,32,24,,,,,,,,,6.12,1.54,5.92*16
$GNGSA,A,3,,,,,,,,,,,,,6.12,1.54,5.92*17
$GPGSV,3,1,10,13,02,036,24,15,31,037,19,16,00,282,,18,46,336,*71
$GPGSV,3,2,10,20,25,047,26,21,59,009,,24,31,106,25,26,04,255,11*7B
$GPGSV,3,3,10,32,29,218,28,42,19,099,29*76
$GLGSV,1,1,01,,,,25*63
$GNGLL,1728.12689,N,07822.54245,E,023955.00,A,A*7A
$GNRMC,023956.00,A,1728.12675,N,07822.54263,E,0.438,,080118,,,A*68
$GNVTG,,T,,M,0.438,N,0.812,K,A*39
$GNGGA,023956.00,1728.12675,N,07822.54263,E,1,04,1.54,558.3,M,-74.0,M,,*6A
$GNGSA,A,3,15,20,32,24,,,,,,,,,6.12,1.54,5.92*16
$GNGSA,A,3,,,,,,,,,,,,,6.12,1.54,5.92*17
$GPGSV,3,1,10,13,02,036,24,15,31,037,17,16,00,282,,18,46,336,*7F
$GPGSV,3,2,10,20,25,047,26,21,59,009,,24,31,106,25,26,04,255,11*7B
$GPGSV,3,3,10,32,29,218,28,42,19,099,29*76
$GLGSV,1,1,01,,,,25*63
$GNGLL,1728.12675,N,07822.54263,E,023956.00,A,A*7E
$GNRMC,023957.00,A,1728.12674,N,07822.54261,E,0.580,,080118,,,A*68
$GNVTG,,T,,M,0.580,N,1.074,K,A*32
$GNGGA,023957.00,1728.12674,N,07822.54261,E,1,04,1.54,558.8,M,-74.0,M,,*63
$GNGSA,A,3,15,20,32,24,,,,,,,,,6.12,1.54,5.93*17
$GNGSA,A,3,,,,,,,,,,,,,6.12,1.54,5.93*16
$GPGSV,3,1,10,13,02,036,25,15,31,037,16,16,00,282,,18,46,336,*7F
$GPGSV,3,2,10,20,25,047,26,21,59,009,,24,31,106,25,26,04,255,13*79
$GPGSV,3,3,10,32,29,218,28,42,19,099,29*76
$GLGSV,1,1,01,,,,25*63
$GNGLL,1728.12674,N,07822.54261,E,023957.00,A,A*7C
$GNRMC,023958.00,A,1728.12661,N,07822.54271,E,0.658,,080118,,,A*64
$GNVTG,,T,,M,0.658,N,1.219,K,A*3D
$GNGGA,023958.00,1728.12661,N,07822.54271,E,1,04,1.54,559.2,M,-74.0,M,,*62
$GNGSA,A,3,15,20,32,24,,,,,,,,,6.12,1.54,5.93*17
$GNGSA,A,3,,,,,,,,,,,,,6.12,1.54,5.93*16
$GPGSV,3,1,10,13,02,036,24,15,31,037,15,16,00,282,,18,46,336,*7D
$GPGSV,3,2,10,20,25,047,25,21,59,009,,24,31,106,24,26,04,255,15*7D
$GPGSV,3,3,10,32,29,218,28,42,19,099,29*76
$GLGSV,1,1,00*65
$GNGLL,1728.12661,N,07822.54271,E,023958.00,A,A*76
$GNRMC,023959.00,A,1728.12647,N,07822.54283,E,0.187,,080118,,,A*69
$GNVTG,,T,,M,0.187,N,0.346,K,A*32
$GNGGA,023959.00,1728.12647,N,07822.54283,E,1,04,1.54,559.7,M,-74.0,M,,*6F
$GNGSA,A,3,15,20,32,24,,,,,,,,,6.12,1.54,5.93*17
$GNGSA,A,3,,,,,,,,,,,,,6.12,1.54,5.93*16
$GPGSV,3,1,10,13,02,036,25,15,31,037,14,16,00,282,,18,46,336,*7D
$GPGSV,3,2,10,20,25,047,25,21,59,009,,24,31,106,25,26,04,255,15*7C
$GPGSV,3,3,10,32,29,218,28,42,19,099,29*76
$GLGSV,1,1,00*65
$GNGLL,1728.12647,N,07822.54283,E,023959.00,A,A*7E
$GNRMC,024000.00,A,1728.12635,N,07822.54294,E,0.045,,080118,,,A*67
$GNVTG,,T,,M,0.045,N,0.083,K,A*37
$GNGGA,024000.00,1728.12635,N,07822.54294,E,1,04,1.54,560.0,M,-74.0,M,,*63
$GNGSA,A,3,15,20,32,24,,,,,,,,,6.13,1.54,5.93*16
$GNGSA,A,3,,,,,,,,,,,,,6.13,1.54,5.93*17
$GPGSV,3,1,10,13,02,036,25,15,31,037,11,16,00,282,,18,46,336,*78
$GPGSV,3,2,10,20,25,047,25,21,59,009,,24,31,106,25,26,04,255,16*7F
$GPGSV,3,3,10,32,29,218,27,42,19,099,29*79
$GLGSV,1,1,00*65
$GNGLL,1728.12635,N,07822.54294,E,024000.00,A,A*7F
$GNRMC,024001.00,A,1728.12632,N,07822.54298,E,0.230,,080118,,,A*6D
$GNVTG,,T,,M,0.230,N,0.426,K,A*3C
$GNGGA,024001.00,1728.12632,N,07822.54298,E,1,04,1.54,560.5,M,-74.0,M,,*6C
$GNGSA,A,3,15,20,32,24,,,,,,,,,6.13,1.54,5.93*16
$GNGSA,A,3,,,,,,,,,,,,,6.13,1.54,5.93*17
$GPGSV,3,1,10,13,02,036,25,15,31,037,10,16,00,282,,18,46,336,*79
$GPGSV,3,2,10,20,25,047,25,21,59,009,,24,31,106,24,26,04,255,17*7F
$GPGSV,3,3,10,32,29,218,28,42,19,099,30*7E
$GLGSV,1,1,00*65
$GNGLL,1728.12632,N,07822.54298,E,024001.00,A,A*75
$GNRMC,024002.00,A,1728.12633,N,07822.54302,E,0.317,,080118,,,A*69
$GNVTG,,T,,M,0.317,N,0.588,K,A*3D
$GNGGA,024002.00,1728.12633,N,07822.54302,E,1,03,1.80,561.3,M,-74.0,M,,*65
$GNGSA,A,3,20,32,24,,,,,,,,,,6.59,1.80,6.34*1B
$GNGSA,A,3,,,,,,,,,,,,,6.59,1.80,6.34*1E
$GPGSV,3,1,10,13,02,036,24,15,31,037,09,16,00,282,,18,46,336,*70
$GPGSV,3,2,10,20,25,047,25,21,59,009,,24,31,106,24,26,04,255,15*7D
$GPGSV,3,3,10,32,29,218,28,42,19,099,30*7E
$GLGSV,1,1,00*65
$GNGLL,1728.12633,N,07822.54302,E,024002.00,A,A*75
$GNRMC,024003.00,A,1728.12624,N,07822.54315,E,0.311,,080118,,,A*6E
$GNVTG,,T,,M,0.311,N,0.577,K,A*3B
$GNGGA,024003.00,1728.12624,N,07822.54315,E,1,03,1.80,561.9,M,-74.0,M,,*6E
$GNGSA,A,3,20,32,24,,,,,,,,,,6.59,1.80,6.34*1B
$GNGSA,A,3,,,,,,,,,,,,,6.59,1.80,6.34*1E
$GPGSV,3,1,10,13,02,036,24,15,31,037,08,16,00,282,,18,46,336,*71
$GPGSV,3,2,10,20,25,047,24,21,59,009,,24,31,106,24,26,04,255,15*7C
$GPGSV,3,3,10,32,29,218,28,42,19,099,29*76
$GLGSV,1,1,00*65
$GNGLL,1728.12624,N,07822.54315,E,024003.00,A,A*74
$GNRMC,024004.00,A,1728.12618,N,07822.54322,E,0.206,,080118,,,A*65
$GNVTG,,T,,M,0.206,N,0.381,K,A*33
$GNGGA,024004.00,1728.12618,N,07822.54322,E,1,03,1.80,562.6,M,-74.0,M,,*6E
$GNGSA,A,3,20,32,24,,,,,,,,,,6.59,1.80,6.34*1B
$GNGSA,A,3,,,,,,,,,,,,,6.59,1.80,6.34*1E
$GPGSV,3,1,10,13,02,036,24,15,31,037,08,16,00,282,,18,46,336,*71
$GPGSV,3,2,10,20,25,047,24,21,59,009,,24,31,106,24,26,04,255,14*7D
$GPGSV,3,3,10,32,29,218,28,42,19,099,29*76
$GLGSV,1,1,00*65
$GNGLL,1728.12618,N,07822.54322,E,024004.00,A,A*78
$GNRMC,024005.00,A,1728.12611,N,07822.54327,E,0.260,,080118,,,A*68
$GNVTG,,T,,M,0.260,N,0.482,K,A*37
$GNGGA,024005.00,1728.12611,N,07822.54327,E,1,03,1.80,563.2,M,-74.0,M,,*66
$GNGSA,A,3,20,32,24,,,,,,,,,,6.59,1.80,6.34*1B
$GNGSA,A,3,,,,,,,,,,,,,6.59,1.80,6.34*1E
$GPGSV,3,1,10,13,02,036,24,15,31,037,08,16,00,282,,18,46,336,*71
$GPGSV,3,2,10,20,25,047,24,21,59,009,,24,31,106,24,26,04,255,15*7C
$GPGSV,3,3,10,32,29,218,28,42,19,099,29*76
$GLGSV,1,1,00*65
$GNGLL,1728.12611,N,07822.54327,E,024005.00,A,A*75
$GNRMC,024006.00,A,1728.12608,N,07822.54332,E,0.067,,080118,,,A*62
$GNVTG,,T,,M,0.067,N,0.125,K,A*3A
$GNGGA,024006.00,1728.12608,N,07822.54332,E,1,03,1.80,564.0,M,-74.0,M,,*6C
$GNGSA,A,3,20,32,24,,,,,,,,,,6.59,1.80,6.34*1B
$GNGSA,A,3,,,,,,,,,,,,,6.59,1.80,6.34*1E
$GPGSV,3,1,10,13,02,036,24,15,31,037,08,16,00,282,,18,46,336,*71
$GPGSV,3,2,10,20,25,047,23,21,59,009,,24,31,106,24,26,04,255,16*78
$GPGSV,3,3,10,32,29,218,27,42,19,099,29*79
$GLGSV,1,1,00*65
$GNGLL,1728.12608,N,07822.54332,E,024006.00,A,A*7A
$GNRMC,024007.00,A,1728.12609,N,07822.54334,E,0.229,,080118,,,A*6C
$GNVTG,,T,,M,0.229,N,0.424,K,A*36
$GNGGA,024007.00,1728.12609,N,07822.54334,E,1,04,1.54,564.7,M,-74.0,M,,*63
$GNGSA,A,3,15,20,32,24,,,,,,,,,6.13,1.54,5.94*11
$GNGSA,A,3,,,,,,,,,,,,,6.13,1.54,5.94*10
$GPGSV,3,1,10,13,02,036,24,15,31,037,12,16,00,282,,18,46,336,*7A
$GPGSV,3,2,10,20,25,047,23,21,59,009,,24,31,106,23,26,04,255,17*7E
$GPGSV,3,3,10,32,29,218,27,42,19,099,29*79
$GLGSV,1,1,00*65
$GNGLL,1728.12609,N,07822.54334,E,024007.00,A,A*7C
$GNRMC,024008.00,A,1728.12612,N,07822.54333,E,0.154,,080118,,,A*67
$GNVTG,,T,,M,0.154,N,0.286,K,A*31
$GNGGA,024008.00,1728.12612,N,07822.54333,E,1,04,1.54,565.4,M,-74.0,M,,*63
$GNGSA,A,3,15,20,32,24,,,,,,,,,6.13,1.54,5.94*11
$GNGSA,A,3,,,,,,,,,,,,,6.13,1.54,5.94*10
$GPGSV,3,1,10,13,02,036,23,15,31,037,12,16,00,282,,18,46,336,*7D
$GPGSV,3,2,10,20,25,047,22,21,59,009,,24,31,106,23,26,04,255,17*7F
$GPGSV,3,3,10,32,29,218,27,42,19,099,29*79
$GLGSV,1,1,00*65
$GNGLL,1728.12612,N,07822.54333,E,024008.00,A,A*7E
$GNRMC,024009.00,A,1728.12611,N,07822.54337,E,0.161,,080118,,,A*67
$GNVTG,,T,,M,0.161,N,0.299,K,A*39
$GNGGA,024009.00,1728.12611,N,07822.54337,E,1,04,1.54,566.1,M,-74.0,M,,*63
$GNGSA,A,3,15,20,32,24,,,,,,,,,6.13,1.54,5.94*11
$GNGSA,A,3,,,,,,,,,,,,,6.13,1.54,5.94*10
$GPGSV,3,1,10,13,02,036,23,15,31,037,12,16,00,282,,18,46,336,*7D
$GPGSV,3,2,10,20,25,047,22,21,59,009,,24,31,106,23,26,04,255,16*7E
$GPGSV,3,3,10,32,29,218,27,42,19,099,30*71
$GLGSV,1,1,00*65
$GNGLL,1728.12611,N,07822.54337,E,024009.00,A,A*78
$GNRMC,024010.00,A,1728.12619,N,07822.54337,E,0.213,,080118,,,A*61
$GNVTG,,T,,M,0.213,N,0.395,K,A*32
$GNGGA,024010.00,1728.12619,N,07822.54337,E,1,04,1.54,566.7,M,-74.0,M,,*65
$GNGSA,A,3,15,20,32,24,,,,,,,,,6.14,1.54,5.94*16
$GNGSA,A,3,,,,,,,,,,,,,6.14,1.54,5.94*17
$GPGSV,3,1,10,13,02,036,23,15,31,037,12,16,00,282,,18,46,336,*7D
$GPGSV,3,2,10,20,25,047,21,21,59,009,,24,31,106,24,26,04,255,16*7A
$GPGSV,3,3,10,32,29,218,27,42,19,099,30*71
$GLGSV,1,1,00*65
$GNGLL,1728.12619,N,07822.54337,E,024010.00,A,A*78
$GNRMC,024011.00,A,1728.12612,N,07822.54345,E,0.194,,080118,,,A*62
$GNVTG,,T,,M,0.194,N,0.358,K,A*3F
$GNGGA,024011.00,1728.12612,N,07822.54345,E,1,04,1.54,567.1,M,-74.0,M,,*6D
$GNGSA,A,3,15,20,32,24,,,,,,,,,6.14,1.54,5.94*16
$GNGSA,A,3,,,,,,,,,,,,,6.14,1.54,5.94*17
$GPGSV,3,1,10,13,02,036,23,15,31,037,12,16,00,282,,18,46,336,*7D
$GPGSV,3,2,10,20,25,047,20,21,59,009,,24,31,106,24,26,04,255,17*7A
$GPGSV,3,3,10,32,29,218,27,42,19,099,30*71
$GLGSV,1,1,00*65
$GNGLL,1728.12612,N,07822.54345,E,024011.00,A,A*77
$GNRMC,024012.00,A,1728.12628,N,07822.54340,E,0.398,,080118,,,A*63
$GNVTG,,T,,M,0.398,N,0.737,K,A*3C
$GNGGA,024012.00,1728.12628,N,07822.54340,E,1,04,1.54,567.5,M,-74.0,M,,*66
$GNGSA,A,3,15,20,32,24,,,,,,,,,6.14,1.54,5.94*16
$GNGSA,A,3,,,,,,,,,,,,,6.14,1.54,5.94*17
$GPGSV,3,1,10,13,02,036,23,15,31,037,12,16,00,282,,18,46,336,*7D
$GPGSV,3,2,10,20,25,047,19,21,59,009,,24,31,106,24,26,04,255,16*71
$GPGSV,3,3,10,32,29,218,28,42,19,099,29*76
$GLGSV,1,1,00*65
$GNGLL,1728.12628,N,07822.54340,E,024012.00,A,A*78
$GNRMC,024013.00,A,1728.12648,N,07822.54334,E,0.598,,080118,,,A*61
$GNVTG,,T,,M,0.598,N,1.108,K,A*31
$GNGGA,024013.00,1728.12648,N,07822.54334,E,1,04,1.54,568.0,M,-74.0,M,,*68
$GNGSA,A,3,15,20,32,24,,,,,,,,,6.14,1.54,5.94*16
$GNGSA,A,3,,,,,,,,,,,,,6.14,1.54,5.94*17
$GPGSV,3,1,10,13,02,036,23,15,31,037,15,16,00,282,,18,46,336,*7A
$GPGSV,3,2,10,20,25,047,18,21,59,009,,24,31,106,24,26,04,255,17*71
$GPGSV,3,3,10,32,29,218,28,42,19,099,29*76
$GLGSV,1,1,00*65
$GNGLL,1728.12648,N,07822.54334,E,024013.00,A,A*7C
$GNRMC,024014.00,A,1728.12676,N,07822.54324,E,0.649,,080118,,,A*65
$GNVTG,,T,,M,0.649,N,1.202,K,A*37
$GNGGA,024014.00,1728.12676,N,07822.54324,E,1,04,1.54,568.6,M,-74.0,M,,*65
$GNGSA,A,3,15,20,32,24,,,,,,,,,6.14,1.54,5.94*16
$GNGSA,A,3,,,,,,,,,,,,,6.14,1.54,5.94*17
$GPGSV,3,1,10,13,02,036,23,15,31,037,15,16,00,282,,18,46,336,*7A
$GPGSV,3,2,10,20,25,047,18,21,59,009,,24,31,106,24,26,04,255,16*70
$GPGSV,3,3,10,32,29,218,27,42,19,099,29*79
$GLGSV,1,1,00*65
$GNGLL,1728.12676,N,07822.54324,E,024014.00,A,A*77
$GNRMC,024015.00,A,1728.12656,N,07822.54332,E,0.339,,080118,,,A*63
$GNVTG,,T,,M,0.339,N,0.628,K,A*38
$GNGGA,024015.00,1728.12656,N,07822.54332,E,1,04,1.54,568.4,M,-74.0,M,,*63
$GNGSA,A,3,15,20,32,24,,,,,,,,,6.14,1.54,5.94*16
$GNGSA,A,3,,,,,,,,,,,,,6.14,1.54,5.94*17
$GPGSV,3,1,10,13,02,036,23,15,31,037,15,16,00,282,,18,46,336,*7A
$GPGSV,3,2,10,20,25,047,18,21,59,009,,24,31,106,24,26,04,255,15*73
$GPGSV,3,3,10,32,29,218,27,42,19,099,29*79
$GLGSV,1,1,00*65
$GNGLL,1728.12656,N,07822.54332,E,024015.00,A,A*73
$GNRMC,024016.00,A,1728.12672,N,07822.54326,E,0.450,,080118,,,A*6B
$GNVTG,,T,,M,0.450,N,0.834,K,A*33
$GNGGA,024016.00,1728.12672,N,07822.54326,E,1,04,1.54,568.7,M,-74.0,M,,*60
$GNGSA,A,3,15,20,32,24,,,,,,,,,6.14,1.54,5.94*16
$GNGSA,A,3,,,,,,,,,,,,,6.14,1.54,5.94*17
$GPGSV,3,1,10,13,02,036,22,15,31,037,15,16,00,282,,18,46,336,*7B
$GPGSV,3,2,10,20,25,047,18,21,59,009,,24,31,106,24,26,04,255,16*70
$GPGSV,3,3,10,32,29,218,27,42,19,099,29*79
$GLGSV,1,1,00*65
$GNGLL,1728.12672,N,07822.54326,E,024016.00,A,A*73
$GNRMC,024017.00,A,1728.12669,N,07822.54328,E,0.410,,080118,,,A*6A
$GNVTG,,T,,M,0.410,N,0.760,K,A*39
$GNGGA,024017.00,1728.12669,N,07822.54328,E,1,04,1.54,569.0,M,-74.0,M,,*63
$GNGSA,A,3,15,20,32,24,,,,,,,,,6.14,1.54,5.95*17
$GNGSA,A,3,,,,,,,,,,,,,6.14,1.54,5.95*16
$GPGSV,3,1,10,13,02,036,23,15,31,037,15,16,00,282,,18,46,336,*7A
$GPGSV,3,2,10,20,25,047,18,21,59,009,,24,31,106,25,26,04,255,16*71
$GPGSV,3,3,10,32,29,218,27,42,19,099,29*79
$GLGSV,1,1,00*65
$GNGLL,1728.12669,N,07822.54328,E,024017.00,A,A*76
$GNRMC,024018.00,A,1728.12691,N,07822.54319,E,0.647,,080118,,,A*60
$GNVTG,,T,,M,0.647,N,1.198,K,A*39
$GNGGA,024018.00,1728.12691,N,07822.54319,E,1,04,1.54,569.4,M,-74.0,M,,*6D
$GNGSA,A,3,15,20,32,24,,,,,,,,,6.14,1.54,5.95*17
$GNGSA,A,3,,,,,,,,,,,,,6.14,1.54,5.95*16
$GPGSV,3,1,10,13,02,036,23,15,31,037,15,16,00,282,,18,46,336,*7A
$GPGSV,3,2,10,20,25,047,18,21,59,009,,24,31,106,25,26,04,255,16*71
$GPGSV,3,3,10,32,29,218,27,42,19,099,29*79
$GLGSV,1,1,00*65
$GNGLL,1728.12691,N,07822.54319,E,024018.00,A,A*7C
$GNRMC,024019.00,A,1728.12780,N,07822.54285,E,1.094,344.89,080118,,,A*71
$GNVTG,344.89,T,,M,1.094,N,2.027,K,A*2A
$GNGGA,024019.00,1728.12780,N,07822.54285,E,1,03,1.81,570.6,M,-74.0,M,,*6C
$GNGSA,A,3,20,32,24,,,,,,,,,,6.60,1.81,6.35*11
$GNGSA,A,3,,,,,,,,,,,,,6.60,1.81,6.35*14
$GPGSV,3,1,10,13,02,036,22,15,31,037,,16,00,282,,18,46,336,*7F
$GPGSV,3,2,10,20,25,047,16,21,59,009,,24,31,106,25,26,04,255,16*7F
$GPGSV,3,3,10,32,29,218,27,42,19,099,30*71
$GLGSV,1,1,00*65
$GNGLL,1728.12780,N,07822.54285,E,024019.00,A,A*78
$GNRMC,024020.00,A,1728.12831,N,07822.54267,E,1.269,344.20,080118,,,A*71
$GNVTG,344.20,T,,M,1.269,N,2.351,K,A*2B
$GNGGA,024020.00,1728.12831,N,07822.54267,E,1,03,1.81,571.3,M,-74.0,M,,*6B
$GNGSA,A,3,20,32,24,,,,,,,,,,6.60,1.81,6.35*11
$GNGSA,A,3,,,,,,,,,,,,,6.60,1.81,6.35*14
$GPGSV,3,1,10,13,02,036,22,15,31,037,23,16,00,282,,18,46,336,*7E
$GPGSV,3,2,10,20,25,047,15,21,59,009,,24,31,106,24,26,04,255,17*7C
$GPGSV,3,3,10,32,29,218,27,42,19,099,29*79
$GLGSV,1,1,00*65
$GNGLL,1728.12831,N,07822.54267,E,024020.00,A,A*7B
$GNRMC,024021.00,A,1728.12910,N,07822.54238,E,1.553,344.64,080118,,,A*76
$GNVTG,344.64,T,,M,1.553,N,2.876,K,A*2B
$GNGGA,024021.00,1728.12910,N,07822.54238,E,1,03,1.81,572.2,M,-74.0,M,,*60
$GNGSA,A,3,20,32,24,,,,,,,,,,6.60,1.81,6.35*11
$GNGSA,A,3,,,,,,,,,,,,,6.60,1.81,6.35*14
$GPGSV,3,1,10,13,02,036,22,15,31,037,22,16,00,282,,18,46,336,*7F
$GPGSV,3,2,10,20,25,047,10,21,59,009,,24,31,106,24,26,04,255,17*79
$GPGSV,3,3,10,32,29,218,26,42,19,099,30*70
$GLGSV,1,1,00*65
$GNGLL,1728.12910,N,07822.54238,E,024021.00,A,A*72
$GNRMC,024022.00,A,1728.12949,N,07822.54225,E,1.583,343.33,080118,,,A*7D
$GNVTG,343.33,T,,M,1.583,N,2.932,K,A*22
$GNGGA,024022.00,1728.12949,N,07822.54225,E,1,03,1.71,573.0,M,-74.0,M,,*6F
$GNGSA,A,3,15,32,24,,,,,,,,,,6.33,1.71,6.09*11
$GNGSA,A,3,,,,,,,,,,,,,6.33,1.71,6.09*12
$GPGSV,3,1,10,13,02,036,22,15,31,037,22,16,00,282,,18,46,336,*7F
$GPGSV,3,2,10,20,25,047,07,21,59,009,,24,31,106,24,26,04,255,17*7F
$GPGSV,3,3,10,32,29,218,26,42,19,099,29*78
$GLGSV,1,1,00*65
$GNGLL,1728.12949,N,07822.54225,E,024022.00,A,A*71
$GNRMC,024023.00,A,1728.12986,N,07822.54209,E,1.636,341.42,080118,,,A*78
$GNVTG,341.42,T,,M,1.636,N,3.030,K,A*21
$GNGGA,024023.00,1728.12986,N,07822.54209,E,1,03,1.71,573.7,M,-74.0,M,,*64
$GNGSA,A,3,15,32,24,,,,,,,,,,6.33,1.71,6.09*11
$GNGSA,A,3,,,,,,,,,,,,,6.33,1.71,6.09*12
$GPGSV,3,1,10,13,02,036,22,15,31,037,22,16,00,282,,18,46,336,*7F
$GPGSV,3,2,10,20,25,047,06,21,59,009,,24,31,106,24,26,04,255,16*7F
$GPGSV,3,3,10,32,29,218,26,42,19,099,29*78
$GLGSV,1,1,00*65
$GNGLL,1728.12986,N,07822.54209,E,024023.00,A,A*7D
$GNRMC,024024.00,A,1728.13019,N,07822.54192,E,1.572,340.95,080118,,,A*78
$GNVTG,340.95,T,,M,1.572,N,2.911,K,A*22
$GNGGA,024024.00,1728.13019,N,07822.54192,E,1,03,1.71,574.2,M,-74.0,M,,*6E
$GNGSA,A,3,15,32,24,,,,,,,,,,6.33,1.71,6.09*11
$GNGSA,A,3,,,,,,,,,,,,,6.33,1.71,6.09*12
$GPGSV,3,1,10,13,02,036,22,15,31,037,23,16,00,282,,18,46,336,*7E
$GPGSV,3,2,10,20,25,047,05,21,59,009,,24,31,106,23,26,04,255,16*7B
$GPGSV,3,3,10,32,29,218,26,42,19,099,29*78
$GLGSV,1,1,00*65
$GNGLL,1728.13019,N,07822.54192,E,024024.00,A,A*75
$GNRMC,024025.00,A,1728.13047,N,07822.54175,E,1.482,341.17,080118,,,A*7E
$GNVTG,341.17,T,,M,1.482,N,2.745,K,A*28
$GNGGA,024025.00,1728.13047,N,07822.54175,E,1,04,1.54,574.4,M,-74.0,M,,*6B
$GNGSA,A,3,15,20,32,24,,,,,,,,,6.15,1.54,5.95*16
$GNGSA,A,3,,,,,,,,,,,,,6.15,1.54,5.95*17
$GPGSV,3,1,10,13,02,036,23,15,31,037,23,16,00,282,,18,46,336,*7F
$GPGSV,3,2,10,20,25,047,11,21,59,009,,24,31,106,23,26,04,255,16*7E
$GPGSV,3,3,10,32,29,218,26,42,19,099,30*70
$GLGSV,1,1,01,,,,23*65
$GNGLL,1728.13047,N,07822.54175,E,024025.00,A,A*76
$GNRMC,024026.00,A,1728.12925,N,07822.54212,E,0.786,,080118,,,A*6B
$GNVTG,,T,,M,0.786,N,1.456,K,A*32
$GNGGA,024026.00,1728.12925,N,07822.54212,E,1,04,1.54,573.3,M,-74.0,M,,*66
$GNGSA,A,3,15,20,32,24,,,,,,,,,6.15,1.54,5.95*16
$GNGSA,A,3,,,,,,,,,,,,,6.15,1.54,5.95*17
$GPGSV,3,1,10,13,02,036,23,15,31,037,24,16,00,282,,18,46,336,*78
$GPGSV,3,2,10,20,25,047,10,21,59,009,,24,31,106,23,26,04,255,15*7C
$GPGSV,3,3,10,32,29,218,26,42,19,099,30*70
$GLGSV,1,1,01,,,,24*62
$GNGLL,1728.12925,N,07822.54212,E,024026.00,A,A*7B
$GNRMC,024027.00,A,1728.12855,N,07822.54232,E,0.519,,080118,,,A*6A
$GNVTG,,T,,M,0.519,N,0.962,K,A*3D
$GNGGA,024027.00,1728.12855,N,07822.54232,E,1,04,1.54,572.6,M,-74.0,M,,*67
$GNGSA,A,3,15,20,32,24,,,,,,,,,6.15,1.54,5.96*15
$GNGSA,A,3,,,,,,,,,,,,,6.15,1.54,5.96*14
$GPGSV,3,1,10,13,02,036,23,15,31,037,24,16,00,282,,18,46,336,*78
$GPGSV,3,2,10,20,25,047,10,21,59,009,,24,31,106,23,26,04,255,15*7C
$GPGSV,3,3,10,32,29,218,26,42,19,099,29*78
$GLGSV,1,1,01,,,,25*63
$GNGLL,1728.12855,N,07822.54232,E,024027.00,A,A*7E
$GNRMC,024028.00,A,1728.12831,N,07822.54235,E,0.355,,080118,,,A*6E
$GNVTG,,T,,M,0.355,N,0.657,K,A*3A
$GNGGA,024028.00,1728.12831,N,07822.54235,E,1,04,1.54,572.6,M,-74.0,M,,*6D
$GNGSA,A,3,15,20,32,24,,,,,,,,,6.15,1.54,5.96*15
$GNGSA,A,3,,,,,,,,,,,,,6.15,1.54,5.96*14
$GPGSV,3,1,10,13,02,036,23,15,31,037,23,16,00,282,,18,46,336,*7F
$GPGSV,3,2,10,20,25,047,10,21,59,009,,24,31,106,23,26,04,255,16*7F
$GPGSV,3,3,10,32,29,218,26,42,19,099,29*78
$GLGSV,1,1,01,,,,25*63
$GNGLL,1728.12831,N,07822.54235,E,024028.00,A,A*74
$GNRMC,024029.00,A,1728.12825,N,07822.54233,E,0.275,,080118,,,A*6F
$GNVTG,,T,,M,0.275,N,0.509,K,A*31
$GNGGA,024029.00,1728.12825,N,07822.54233,E,1,04,1.54,572.8,M,-74.0,M,,*61
$GNGSA,A,3,15,20,32,24,,,,,,,,,6.15,1.54,5.96*15
$GNGSA,A,3,,,,,,,,,,,,,6.15,1.54,5.96*14
$GPGSV,3,1,10,13,02,036,23,15,31,037,24,16,00,282,,18,46,336,*78
$GPGSV,3,2,10,20,25,047,10,21,59,009,,24,31,106,23,26,04,255,17*7E
$GPGSV,3,3,10,32,29,218,25,42,19,099,29*7B
$GLGSV,1,1,01,,,,25*63
$GNGLL,1728.12825,N,07822.54233,E,024029.00,A,A*76
$GNRMC,024030.00,A,1728.12805,N,07822.54235,E,0.157,,080118,,,A*60
$GNVTG,,T,,M,0.157,N,0.291,K,A*34
$GNGGA,024030.00,1728.12805,N,07822.54235,E,1,04,1.54,573.0,M,-74.0,M,,*64
$GNGSA,A,3,15,20,32,24,,,,,,,,,6.15,1.54,5.96*15
$GNGSA,A,3,,,,,,,,,,,,,6.15,1.54,5.96*14
$GPGSV,3,1,10,13,02,036,23,15,31,037,25,16,00,282,,18,46,336,*79
$GPGSV,3,2,10,20,25,047,10,21,59,009,,24,31,106,23,26,04,255,17*7E
$GPGSV,3,3,10,32,29,218,26,42,19,099,29*78
$GLGSV,1,1,01,,,,25*63
$GNGLL,1728.12805,N,07822.54235,E,024030.00,A,A*7A
$GNRMC,024031.00,A,1728.12782,N,07822.54245,E,0.168,,080118,,,A*6A
$GNVTG,,T,,M,0.168,N,0.312,K,A*32
$GNGGA,024031.00,1728.12782,N,07822.54245,E,1,04,1.54,573.7,M,-74.0,M,,*65
$GNGSA,A,3,15,20,32,24,,,,,,,,,6.16,1.54,5.96*16
$GNGSA,A,3,,,,,,,,,,,,,6.16,1.54,5.96*17
$GPGSV,3,1,10,13,02,036,23,15,31,037,24,16,00,282,,18,46,336,*78
$GPGSV,3,2,10,20,25,047,11,21,59,009,,24,31,106,22,26,04,255,18*71
$GPGSV,3,3,10,32,29,218,25,42,19,099,30*73
$GLGSV,1,1,01,,,,25*63
$GNGLL,1728.12782,N,07822.54245,E,024031.00,A,A*7C
$GNRMC,024032.00,A,1728.12766,N,07822.54241,E,0.063,,080118,,,A*6D
$GNVTG,,T,,M,0.063,N,0.118,K,A*30
$GNGGA,024032.00,1728.12766,N,07822.54241,E,1,04,1.54,572.9,M,-74.0,M,,*67
$GNGSA,A,3,15,20,32,24,,,,,,,,,6.16,1.54,5.96*16
$GNGSA,A,3,,,,,,,,,,,,,6.16,1.54,5.96*17
$GPGSV,3,1,10,13,02,036,23,15,31,037,24,16,00,282,,18,46,336,*78
$GPGSV,3,2,10,20,25,047,18,21,59,009,,24,31,106,22,26,04,255,18*78
$GPGSV,3,3,10,32,29,218,26,42,19,099,29*78
$GLGSV,1,1,01,,,,25*63
$GNGLL,1728.12766,N,07822.54241,E,024032.00,A,A*71
$GNRMC,024033.00,A,1728.12743,N,07822.54239,E,0.143,,080118,,,A*67
$GNVTG,,T,,M,0.143,N,0.266,K,A*39
$GNGGA,024033.00,1728.12743,N,07822.54239,E,1,04,1.54,571.6,M,-74.0,M,,*62
$GNGSA,A,3,15,20,32,24,,,,,,,,,6.16,1.54,5.96*16
$GNGSA,A,3,,,,,,,,,,,,,6.16,1.54,5.96*17
$GPGSV,3,1,10,13,02,036,24,15,31,037,23,16,00,282,,18,46,336,*78
$GPGSV,3,2,10,20,25,047,18,21,59,009,,24,31,106,21,26,04,255,17*74
$GPGSV,3,3,10,32,29,218,25,42,19,099,29*7B
$GLGSV,1,1,01,,,,25*63
$GNGLL,1728.12743,N,07822.54239,E,024033.00,A,A*78
$GNRMC,024034.00,A,1728.12739,N,07822.54226,E,0.187,,080118,,,A*6B
$GNVTG,,T,,M,0.187,N,0.347,K,A*33
$GNGGA,024034.00,1728.12739,N,07822.54226,E,1,04,1.54,570.0,M,-74.0,M,,*61
$GNGSA,A,3,15,20,32,24,,,,,,,,,6.16,1.54,5.96*16
$GNGSA,A,3,,,,,,,,,,,,,6.16,1.54,5.96*17
$GPGSV,3,1,10,13,02,036,24,15,31,037,23,16,00,282,,18,46,336,*78
$GPGSV,3,2,10,20,25,047,18,21,59,009,,24,31,106,22,26,04,255,17*77
$GPGSV,3,3,10,32,29,218,25,42,19,099,29*7B
$GLGSV,1,1,01,,,,25*63
$GNGLL,1728.12739,N,07822.54226,E,024034.00,A,A*7C
$GNRMC,024035.00,A,1728.12797,N,07822.54189,E,0.474,,080118,,,A*61
$GNVTG,,T,,M,0.474,N,0.878,K,A*3D
$GNGGA,024035.00,1728.12797,N,07822.54189,E,1,04,1.54,568.8,M,-74.0,M,,*63
$GNGSA,A,3,15,20,32,24,,,,,,,,,6.16,1.54,5.96*16
$GNGSA,A,3,,,,,,,,,,,,,6.16,1.54,5.96*17
$GPGSV,3,1,10,13,02,036,24,15,31,037,24,16,00,282,,18,46,336,*7F
$GPGSV,3,2,10,20,25,047,18,21,59,009,,24,31,106,21,26,03,255,17*73
$GPGSV,3,3,10,32,29,218,25,42,19,099,29*7B
$GLGSV,1,1,01,,,,25*63
$GNGLL,1728.12797,N,07822.54189,E,024035.00,A,A*7F
$GNRMC,024036.00,A,1728.12773,N,07822.54199,E,0.222,,080118,,,A*6C
$GNVTG,,T,,M,0.222,N,0.411,K,A*3B
$GNGGA,024036.00,1728.12773,N,07822.54199,E,1,04,1.54,569.3,M,-74.0,M,,*61
$GNGSA,A,3,15,20,32,24,,,,,,,,,6.16,1.54,5.96*16
$GNGSA,A,3,,,,,,,,,,,,,6.16,1.54,5.96*17
$GPGSV,3,1,10,13,02,036,24,15,31,037,24,16,00,282,,18,46,336,*7F
$GPGSV,3,2,10,20,25,047,18,21,59,009,,24,31,106,21,26,03,255,16*72
$GPGSV,3,3,10,32,30,219,25,42,19,099,29*72
$GLGSV,1,1,01,,,,25*63
$GNGLL,1728.12773,N,07822.54199,E,024036.00,A,A*77
$GNRMC,024037.00,A,1728.12781,N,07822.54192,E,0.307,,080118,,,A*6D
$GNVTG,,T,,M,0.307,N,0.569,K,A*33
$GNGGA,024037.00,1728.12781,N,07822.54192,E,1,04,1.54,569.6,M,-74.0,M,,*63
$GNGSA,A,3,15,20,32,24,,,,,,,,,6.16,1.54,5.97*17
